id,town,county,state,ccd_id,lat,lon,me_town_id
vt.governor.1796,Bridport,Addison,Vermont,NA,43.9873736,-73.351164,ME-VT0026
vt.governor.1796,Bristol,Addison,Vermont,NA,44.1333912,-73.0790076,ME-VT0027
vt.governor.1796,Cornwall,Addison,Vermont,NA,43.960893,-73.2103951,ME-VT0049
vt.governor.1796,Ferrisburgh,Addison,Vermont,NA,44.2056098,-73.2462341,ME-VT0069
vt.governor.1796,Hancock,Addison,Vermont,NA,43.9261192,-72.8412292,ME-VT0084
vt.governor.1796,Panton,Addison,Vermont,NA,44.1487891,-73.3409878,ME-VT0139
vt.governor.1796,Shoreham,Addison,Vermont,NA,43.8936708,-73.3159515,ME-VT0175
vt.governor.1796,Vergennes,Addison,Vermont,7059,44.1676604,-73.2553163,ME-VT0201
vt.governor.1796,Bennington,Bennington,Vermont,7043,42.878414,-73.190562,ME-VT0014
vt.governor.1796,Readsboro,Bennington,Vermont,NA,42.7718758,-72.9470426,ME-VT0154
vt.governor.1796,Shaftsbury,Bennington,Vermont,NA,42.95315594,-73.20808411,ME-VT0170
vt.governor.1796,Winhall,Bennington,Vermont,NA,43.1558097,-72.9133169,ME-VT0232
vt.governor.1796,Cabot,Caledonia,Vermont,NA,44.4014456,-72.3123248,ME-VT0034
vt.governor.1796,Calais,Caledonia,Vermont,NA,44.363296,-72.4663426,ME-VT0035
vt.governor.1796,Montpelier,Caledonia,Vermont,7049,44.2664485,-72.5715237,ME-VT0123
vt.governor.1796,Saint Johnsbury,Caledonia,Vermont,NA,44.4192627,-72.0151183,ME-VT0166
vt.governor.1796,Essex,Chittenden,Vermont,8518,44.511,-73.0582,ME-VT0063
vt.governor.1796,Jericho,Chittenden,Vermont,NA,44.5039395,-72.9976266,ME-VT0098
vt.governor.1796,Milton,Chittenden,Vermont,NA,44.6397701,-73.1104112,ME-VT0120
vt.governor.1796,Shelbourne,Chittenden,Vermont,NA,44.3806065,-73.227626,ME-VT0173
vt.governor.1796,Georgia,Franklin,Vermont,NA,44.7392004,-73.1301205,ME-VT0072
vt.governor.1796,Highgate,Franklin,Vermont,NA,44.9565227,-73.0511203,ME-VT0088
vt.governor.1796,Braintree,Orange,Vermont,NA,43.9621778,-72.7046487,ME-VT0022
vt.governor.1796,Chelsea,Orange,Vermont,NA,43.989788,-72.4475994,ME-VT0042
vt.governor.1796,Fairlee,Orange,Vermont,NA,43.9053567,-72.1518675,ME-VT0067
vt.governor.1796,Newbury,Orange,Vermont,NA,44.08561219,-72.07580566,ME-VT0131
vt.governor.1796,Randolph,Orange,Vermont,NA,43.9247446,-72.6656948,ME-VT0152
vt.governor.1796,Strafford,Orange,Vermont,NA,43.8664568,-72.3778728,ME-VT0188
vt.governor.1796,Turnbridge,Orange,Vermont,NA,43.9198761,-72.4782827,ME-VT0199
vt.governor.1796,Benson,Rutland,Vermont,NA,43.7099497,-73.3001233,ME-VT0015
vt.governor.1796,Mount Holly,Rutland,Vermont,NA,43.4474694,-72.8256382,ME-VT0127
vt.governor.1796,Piitsfield,Rutland,Vermont,NA,43.7722884,-72.8128828,ME-VT0144
vt.governor.1796,Pittsford,Rutland,Vermont,NA,43.7067329,-73.0281647,ME-VT0145
vt.governor.1796,Halifax,Windham,Vermont,NA,42.7698048,-72.7453716,ME-VT0083
vt.governor.1796,Jamica,Windham,Vermont,NA,43.1003556,-72.7784296,ME-VT0097
vt.governor.1796,Marlborough,Windham,Vermont,NA,42.859526,-72.7259271,ME-VT0114
vt.governor.1796,New Fane,Windham,Vermont,NA,42.9856736,-72.6559313,ME-VT0132
vt.governor.1796,Putney,Windham,Vermont,NA,42.975268,-72.5217237,ME-VT0151
vt.governor.1796,Rockingham,Windham,Vermont,NA,43.1876028,-72.4889288,ME-VT0158
vt.governor.1796,Wardsboro,Windham,Vermont,NA,43.0409512,-72.7897975,ME-VT0209
vt.governor.1796,Westminster,Windham,Vermont,NA,43.0678307,-72.4587404,ME-VT0220
vt.governor.1796,Whitingham,Windham,Vermont,NA,42.7892488,-72.885098,ME-VT0226
vt.governor.1796,Wilmington,Windham,Vermont,NA,42.8683889,-72.8714468,ME-VT0229
vt.governor.1796,Andover,Windsor,Vermont,NA,43.2773586,-72.6965278,ME-VT0004
vt.governor.1796,Barnard,Windsor,Vermont,NA,43.728679,-72.6189876,ME-VT0009
vt.governor.1796,Bethel,Windsor,Vermont,NA,43.8332779,-72.633995,ME-VT0018
vt.governor.1796,Cavendish,Windsor,Vermont,NA,43.39120261,-72.60005951,ME-VT0039
vt.governor.1796,Hartland,Windsor,Vermont,NA,43.540636,-72.3989314,ME-VT0087
vt.governor.1796,Pomfret,Windsor,Vermont,NA,43.7270391,-72.4801821,ME-VT0148
vt.governor.1796,Reading,Windsor,Vermont,NA,43.4893362,-72.5914616,ME-VT0153
vt.governor.1796,Royalton,Windsor,Vermont,NA,43.8176574,-72.5427505,ME-VT0160
vt.governor.1796,Sharon,Windsor,Vermont,NA,43.7852344,-72.4541709,ME-VT0171
vt.governor.1796,Springfield,Windsor,Vermont,7055,43.294056,-72.481704,ME-VT0180
vt.governor.1796,Woodstock,Windsor,Vermont,NA,43.6242442,-72.5185112,ME-VT0236
vt.uscongress.2.1796,Addison,Addison,Vermont,NA,44.0886671,-73.302622,ME-VT0001
vt.uscongress.2.1796,Bridport,Addison,Vermont,NA,43.9873736,-73.351164,ME-VT0026
vt.uscongress.2.1796,Bristol,Addison,Vermont,NA,44.1333912,-73.0790076,ME-VT0027
vt.uscongress.2.1796,Cornwall,Addison,Vermont,NA,43.960893,-73.2103951,ME-VT0049
vt.uscongress.2.1796,Ferrisburgh,Addison,Vermont,NA,44.2056098,-73.2462341,ME-VT0069
vt.uscongress.2.1796,Hancock,Addison,Vermont,NA,43.9261192,-72.8412292,ME-VT0084
vt.uscongress.2.1796,Kingston,Addison,Vermont,NA,43.9855014,-72.8467412,ME-VT0078
vt.uscongress.2.1796,Leicester,Addison,Vermont,NA,43.8667293,-73.1078914,ME-VT0103
vt.uscongress.2.1796,Middlebury,Addison,Vermont,7048,44.014153,-73.163784,ME-VT0117
vt.uscongress.2.1796,Monkton,Addison,Vermont,NA,44.2200554,-73.1253991,ME-VT0121
vt.uscongress.2.1796,Newhaven,Addison,Vermont,NA,44.1243277,-73.1535713,ME-VT0129
vt.uscongress.2.1796,Panton,Addison,Vermont,NA,44.1487891,-73.3409878,ME-VT0139
vt.uscongress.2.1796,Salisbury,Addison,Vermont,NA,43.8964511,-73.0998363,ME-VT0168
vt.uscongress.2.1796,Shoreham,Addison,Vermont,NA,43.8936708,-73.3159515,ME-VT0175
vt.uscongress.2.1796,Starksboro,Addison,Vermont,NA,44.2272782,-73.0573427,ME-VT0184
vt.uscongress.2.1796,Vergennes,Addison,Vermont,7059,44.1676604,-73.2553163,ME-VT0201
vt.uscongress.2.1796,Weybridge,Addison,Vermont,NA,44.0498636,-73.2143577,ME-VT0223
vt.uscongress.2.1796,Whiting,Addison,Vermont,NA,43.8639503,-73.2003929,ME-VT0225
vt.uscongress.2.1796,Arlington,Bennington,Vermont,NA,43.0747996,-73.1539954,ME-VT0005
vt.uscongress.2.1796,Bennington,Bennington,Vermont,7043,42.878414,-73.190562,ME-VT0014
vt.uscongress.2.1796,Dorset,Bennington,Vermont,NA,43.2548074,-73.0987801,ME-VT0056
vt.uscongress.2.1796,Manchester,Bennington,Vermont,NA,43.1636875,-73.0723268,ME-VT0112
vt.uscongress.2.1796,Pownal,Bennington,Vermont,NA,42.76465819,-73.24001312,ME-VT0150
vt.uscongress.2.1796,Reedsborough,Bennington,Vermont,NA,42.7718758,-72.9470426,ME-VT0154
vt.uscongress.2.1796,Reupert,Bennington,Vermont,NA,43.2597979,-73.2228853,ME-VT0161
vt.uscongress.2.1796,Sandgate,Bennington,Vermont,NA,43.1477916,-73.1994243,ME-VT0169
vt.uscongress.2.1796,Shaftsbury,Bennington,Vermont,NA,42.95315594,-73.20808411,ME-VT0170
vt.uscongress.2.1796,Stanford,Bennington,Vermont,NA,42.7561535,-73.0679253,ME-VT0182
vt.uscongress.2.1796,Sunderland,Bennington,Vermont,NA,43.1113938,-73.1180595,ME-VT0191
vt.uscongress.2.1796,Winhall,Bennington,Vermont,NA,43.1558097,-72.9133169,ME-VT0232
vt.uscongress.2.1796,Bolton,Chittenden,Vermont,NA,44.3726476,-72.8787625,ME-VT0020
vt.uscongress.2.1796,Burlington,Chittenden,Vermont,7045,44.4919905,-73.2393625,ME-VT0033
vt.uscongress.2.1796,Charlotte,Chittenden,Vermont,NA,44.3098476,-73.2609928,ME-VT0041
vt.uscongress.2.1796,Colchester,Chittenden,Vermont,8517,44.5364,-73.20892,ME-VT0046
vt.uscongress.2.1796,Duxbury,Chittenden,Vermont,NA,44.3270012,-72.7526175,ME-VT0059
vt.uscongress.2.1796,Essex,Chittenden,Vermont,8518,44.511,-73.0582,ME-VT0063
vt.uscongress.2.1796,Hinesburg,Chittenden,Vermont,NA,44.3292199,-73.110679,ME-VT0089
vt.uscongress.2.1796,Huntington,Chittenden,Vermont,NA,44.3253512,-72.9873459,ME-VT0092
vt.uscongress.2.1796,Jericho,Chittenden,Vermont,NA,44.5039395,-72.9976266,ME-VT0098
vt.uscongress.2.1796,Morristown,Chittenden,Vermont,NA,44.5572744,-72.6237275,ME-VT0126
vt.uscongress.2.1796,Richmond,Chittenden,Vermont,NA,44.4053135,-72.9924128,ME-VT0156
vt.uscongress.2.1796,Shelburne,Chittenden,Vermont,NA,44.3806065,-73.227626,ME-VT0173
vt.uscongress.2.1796,South Hero,Chittenden,Vermont,NA,44.6453228,-73.3023532,ME-VT0179
vt.uscongress.2.1796,Underhill,Chittenden,Vermont,NA,44.5258842,-72.9451267,ME-VT0200
vt.uscongress.2.1796,Waitsfield,Chittenden,Vermont,NA,44.1926386,-72.7798479,ME-VT0205
vt.uscongress.2.1796,Waterbury,Chittenden,Vermont,7060,44.33962,-72.750363,ME-VT0212
vt.uscongress.2.1796,Wellford,Chittenden,Vermont,NA,44.5983349,-72.9977003,ME-VT0219
vt.uscongress.2.1796,Williston,Chittenden,Vermont,NA,44.4454432,-73.099194,ME-VT0228
vt.uscongress.2.1796,Bakersfield,Franklin,Vermont,NA,44.781992700000004,-72.8029085,ME-VT0007
vt.uscongress.2.1796,Georgia,Franklin,Vermont,NA,44.7392004,-73.1301205,ME-VT0072
vt.uscongress.2.1796,Isle Motte,Franklin,Vermont,NA,44.87801174,-73.33854675,ME-VT0204
vt.uscongress.2.1796,North Hero,Franklin,Vermont,NA,44.8311432,-73.273505,ME-VT0134
vt.uscongress.2.1796,Saint Albans,Franklin,Vermont,NA,44.8107132,-73.0835582,ME-VT0164
vt.uscongress.2.1796,Benson,Rutland,Vermont,NA,43.7099497,-73.3001233,ME-VT0015
vt.uscongress.2.1796,Brandon,Rutland,Vermont,NA,43.7981195,-73.0876119,ME-VT0023
vt.uscongress.2.1796,Castleton,Rutland,Vermont,NA,43.6106223,-73.179832,ME-VT0038
vt.uscongress.2.1796,Chittenden,Rutland,Vermont,NA,43.7271064,-72.9428417,ME-VT0044
vt.uscongress.2.1796,Clarendon,Rutland,Vermont,NA,43.5478671,-72.9696779,ME-VT0045
vt.uscongress.2.1796,Danby,Rutland,Vermont,NA,43.3548341,-73.0475498,ME-VT0052
vt.uscongress.2.1796,Fairhaven,Rutland,Vermont,7047,43.595701,-73.270598,ME-VT0066
vt.uscongress.2.1796,Harwich,Rutland,Vermont,NA,43.3506285,-72.9826037,ME-VT0128
vt.uscongress.2.1796,Hubbardton,Rutland,Vermont,NA,43.7073648,-73.1845482,ME-VT0091
vt.uscongress.2.1796,Ira,Rutland,Vermont,NA,43.5345134,-73.0620512,ME-VT0094
vt.uscongress.2.1796,Killington,Rutland,Vermont,NA,43.6775677,-72.7798247,ME-VT0100
vt.uscongress.2.1796,Middletown,Rutland,Vermont,NA,43.4856255,-73.1181624,ME-VT0119
vt.uscongress.2.1796,Mount Holly,Rutland,Vermont,NA,43.4474694,-72.8256382,ME-VT0127
vt.uscongress.2.1796,Orwell,Rutland,Vermont,NA,43.8039502,-73.2978936,ME-VT0138
vt.uscongress.2.1796,Pawlet,Rutland,Vermont,NA,43.3465552,-73.177286,ME-VT0140
vt.uscongress.2.1796,Pittsfield,Rutland,Vermont,NA,43.7722884,-72.8128828,ME-VT0144
vt.uscongress.2.1796,Pittsford,Rutland,Vermont,NA,43.7067329,-73.0281647,ME-VT0145
vt.uscongress.2.1796,Poultney,Rutland,Vermont,NA,43.5170325,-73.2362261,ME-VT0149
vt.uscongress.2.1796,Rutland,Rutland,Vermont,7053,43.6096702,-72.9777884,ME-VT0162
vt.uscongress.2.1796,Shrewsbury,Rutland,Vermont,NA,43.5089588,-72.8667686,ME-VT0176
vt.uscongress.2.1796,Sudbury,Rutland,Vermont,NA,43.7992291,-73.2045583,ME-VT0190
vt.uscongress.2.1796,Tinmouth,Rutland,Vermont,NA,43.448682,-73.0495501,ME-VT0195
vt.uscongress.2.1796,Wallingford,Rutland,Vermont,NA,43.4717467,-72.9773692,ME-VT0207
vt.uscongress.2.1796,Wells,Rutland,Vermont,NA,43.4172937,-73.2042744,ME-VT0215
vt.uscongress.2.1796,Westhaven,Rutland,Vermont,NA,43.6382658,-73.3826585,ME-VT0217
vt.treasurer.1800,Peacham,Caledonia,Vermont,NA,44.3286166,-72.1704048,ME-VT0141
vt.council.1800,Peacham,Caledonia,Vermont,NA,44.3286166,-72.1704048,ME-VT0141
vt.ltgovernor.1800,Peacham,Caledonia,Vermont,NA,44.3286166,-72.1704048,ME-VT0141
vt.governor.1800,Bridport,Addison,Vermont,NA,43.9873736,-73.351164,ME-VT0026
vt.governor.1800,Bristol,Addison,Vermont,NA,44.1333912,-73.0790076,ME-VT0027
vt.governor.1800,Cornwall,Addison,Vermont,NA,43.960893,-73.2103951,ME-VT0049
vt.governor.1800,Ferrisburgh,Addison,Vermont,NA,44.2056098,-73.2462341,ME-VT0069
vt.governor.1800,Hancock,Addison,Vermont,NA,43.9261192,-72.8412292,ME-VT0084
vt.governor.1800,Middlebury,Addison,Vermont,7048,44.014153,-73.163784,ME-VT0117
vt.governor.1800,Monkton,Addison,Vermont,NA,44.2200554,-73.1253991,ME-VT0121
vt.governor.1800,Newhaven,Addison,Vermont,NA,44.1243277,-73.1535713,ME-VT0129
vt.governor.1800,Vergennes,Addison,Vermont,7059,44.1676604,-73.2553163,ME-VT0201
vt.governor.1800,Warren,Addison,Vermont,NA,44.112005,-72.8559474,ME-VT0210
vt.governor.1800,Bennington,Bennington,Vermont,7043,42.878414,-73.190562,ME-VT0014
vt.governor.1800,Pownal,Bennington,Vermont,NA,42.76465819,-73.24001312,ME-VT0150
vt.governor.1800,Readsboro,Bennington,Vermont,NA,42.7718758,-72.9470426,ME-VT0154
vt.governor.1800,Shaftsbury,Bennington,Vermont,NA,42.95315594,-73.20808411,ME-VT0170
vt.governor.1800,Winhall,Bennington,Vermont,NA,43.1558097,-72.9133169,ME-VT0232
vt.governor.1800,Cabot,Caledonia,Vermont,NA,44.4014456,-72.3123248,ME-VT0034
vt.governor.1800,Calais,Caledonia,Vermont,NA,44.363296,-72.4663426,ME-VT0035
vt.governor.1800,Hardwick,Caledonia,Vermont,NA,44.5416243,-72.3486803,ME-VT0085
vt.governor.1800,Marshfield,Caledonia,Vermont,NA,44.3508405,-72.3539905,ME-VT0115
vt.governor.1800,Montpelier,Caledonia,Vermont,7049,44.2664485,-72.5715237,ME-VT0123
vt.governor.1800,Peacham,Caledonia,Vermont,NA,44.3286166,-72.1704048,ME-VT0141
vt.governor.1800,Saint Johnsbury,Caledonia,Vermont,NA,44.4192627,-72.0151183,ME-VT0166
vt.governor.1800,Walden,Caledonia,Vermont,NA,44.4497781,-72.2231563,ME-VT0206
vt.governor.1800,Charlotte,Chittenden,Vermont,NA,44.3098476,-73.2609928,ME-VT0041
vt.governor.1800,Colchester,Chittenden,Vermont,8517,44.5364,-73.20892,ME-VT0046
vt.governor.1800,Essex,Chittenden,Vermont,8518,44.511,-73.0582,ME-VT0063
vt.governor.1800,Jericho,Chittenden,Vermont,NA,44.5039395,-72.9976266,ME-VT0098
vt.governor.1800,Milton,Chittenden,Vermont,NA,44.6397701,-73.1104112,ME-VT0120
vt.governor.1800,Shelbourne,Chittenden,Vermont,NA,44.3806065,-73.227626,ME-VT0173
vt.governor.1800,Stow,Chittenden,Vermont,NA,44.4654332,-72.6874023,ME-VT0187
vt.governor.1800,Underhill,Chittenden,Vermont,NA,44.5258842,-72.9451267,ME-VT0200
vt.governor.1800,Enosburgh,Franklin,Vermont,NA,44.8689592,-72.7310458,ME-VT0062
vt.governor.1800,Fairfax,Franklin,Vermont,NA,44.6654963,-73.01032,ME-VT0064
vt.governor.1800,Georgia,Franklin,Vermont,NA,44.7392004,-73.1301205,ME-VT0072
vt.governor.1800,Highgate,Franklin,Vermont,NA,44.9565227,-73.0511203,ME-VT0088
vt.governor.1800,Richford,Franklin,Vermont,NA,44.9969955,-72.6713018,ME-VT0155
vt.governor.1800,Braintree,Orange,Vermont,NA,43.9621778,-72.7046487,ME-VT0022
vt.governor.1800,Chelsea,Orange,Vermont,NA,43.989788,-72.4475994,ME-VT0042
vt.governor.1800,Fairlee,Orange,Vermont,NA,43.9053567,-72.1518675,ME-VT0067
vt.governor.1800,Guildhall,Orange,Vermont,NA,44.56919224,-71.5836525,ME-VT0081
vt.governor.1800,Lunenburgh,Orange,Vermont,NA,44.4631136,-71.6820321,ME-VT0109
vt.governor.1800,Newbury,Orange,Vermont,NA,44.08561219,-72.07580566,ME-VT0131
vt.governor.1800,Northfield,Orange,Vermont,7051,44.15117264,-72.65649414,ME-VT0135
vt.governor.1800,Roxbury,Orange,Vermont,NA,44.0939388,-72.7329823,ME-VT0159
vt.governor.1800,Turnbridge,Orange,Vermont,NA,43.9198761,-72.4782827,ME-VT0199
vt.governor.1800,Washington,Orange,Vermont,NA,44.105619,-72.432601,ME-VT0211
vt.governor.1800,Browington,Orleans,Vermont,NA,44.8266615,-72.1348097,ME-VT0030
vt.governor.1800,Duncansboro,Orleans,Vermont,7050,44.9417038,-72.2194775,ME-VT0133
vt.governor.1800,Elmore,Orleans,Vermont,NA,44.5274632,-72.5187486,ME-VT0061
vt.governor.1800,Benson,Rutland,Vermont,NA,43.7099497,-73.3001233,ME-VT0015
vt.governor.1800,Orwell,Rutland,Vermont,NA,43.8039502,-73.2978936,ME-VT0138
vt.governor.1800,Piitsfield,Rutland,Vermont,NA,43.7722884,-72.8128828,ME-VT0144
vt.governor.1800,Pittsford,Rutland,Vermont,NA,43.7067329,-73.0281647,ME-VT0145
vt.governor.1800,Rutland,Rutland,Vermont,7053,43.6096702,-72.9777884,ME-VT0162
vt.governor.1800,Shrewsbury,Rutland,Vermont,NA,43.5089588,-72.8667686,ME-VT0176
vt.governor.1800,Brattleboro,Windham,Vermont,7044,42.856099,-72.564186,ME-VT0024
vt.governor.1800,Dummerston,Windham,Vermont,NA,42.9215017,-72.5838146,ME-VT0058
vt.governor.1800,Guildhall,Windham,Vermont,NA,44.56919224,-71.5836525,ME-VT0081
vt.governor.1800,Halifax,Windham,Vermont,NA,42.7698048,-72.7453716,ME-VT0083
vt.governor.1800,Hinsdale,Windham,Vermont,NA,42.7620271,-72.5134223,ME-VT0202
vt.governor.1800,Jamica,Windham,Vermont,NA,43.1003556,-72.7784296,ME-VT0097
vt.governor.1800,Londonderry,Windham,Vermont,NA,43.2264643,-72.8064866,ME-VT0106
vt.governor.1800,Marlborough,Windham,Vermont,NA,42.859526,-72.7259271,ME-VT0114
vt.governor.1800,New Fane,Windham,Vermont,NA,42.9856736,-72.6559313,ME-VT0132
vt.governor.1800,Putney,Windham,Vermont,NA,42.975268,-72.5217237,ME-VT0151
vt.governor.1800,Rockingham,Windham,Vermont,NA,43.1876028,-72.4889288,ME-VT0158
vt.governor.1800,Somerset,Windham,Vermont,NA,42.9502858,-72.9862472,ME-VT0178
vt.governor.1800,Stratton,Windham,Vermont,NA,43.0428562,-72.9109334,ME-VT0189
vt.governor.1800,Townsend,Windham,Vermont,NA,43.0472267,-72.6678428,ME-VT0197
vt.governor.1800,Wardsboro,Windham,Vermont,NA,43.0409512,-72.7897975,ME-VT0209
vt.governor.1800,Westminster,Windham,Vermont,NA,43.0678307,-72.4587404,ME-VT0220
vt.governor.1800,Whitingham,Windham,Vermont,NA,42.7892488,-72.885098,ME-VT0226
vt.governor.1800,Wilmington,Windham,Vermont,NA,42.8683889,-72.8714468,ME-VT0229
vt.governor.1800,Andover,Windsor,Vermont,NA,43.2773586,-72.6965278,ME-VT0004
vt.governor.1800,Barnard,Windsor,Vermont,NA,43.728679,-72.6189876,ME-VT0009
vt.governor.1800,Bethel,Windsor,Vermont,NA,43.8332779,-72.633995,ME-VT0018
vt.governor.1800,Cavendish,Windsor,Vermont,NA,43.39120261,-72.60005951,ME-VT0039
vt.governor.1800,Chester,Windsor,Vermont,NA,43.2628476,-72.5951082,ME-VT0043
vt.governor.1800,Hartland,Windsor,Vermont,NA,43.540636,-72.3989314,ME-VT0087
vt.governor.1800,Pomfret,Windsor,Vermont,NA,43.7270391,-72.4801821,ME-VT0148
vt.governor.1800,Reading,Windsor,Vermont,NA,43.4893362,-72.5914616,ME-VT0153
vt.governor.1800,Royalton,Windsor,Vermont,NA,43.8176574,-72.5427505,ME-VT0160
vt.governor.1800,Sharon,Windsor,Vermont,NA,43.7852344,-72.4541709,ME-VT0171
vt.governor.1800,Windsor,Windsor,Vermont,7061,43.477535,-72.401154,ME-VT0231
vt.uscongress.eastern.1800,Billymead,Caledonia,Vermont,NA,44.6331085,-72.0256525,ME-VT0192
vt.uscongress.eastern.1800,Cabot,Caledonia,Vermont,NA,44.4014456,-72.3123248,ME-VT0034
vt.uscongress.eastern.1800,Calais,Caledonia,Vermont,NA,44.363296,-72.4663426,ME-VT0035
vt.uscongress.eastern.1800,Danville,Caledonia,Vermont,NA,44.4114954,-72.14009,ME-VT0053
vt.uscongress.eastern.1800,Hardwick,Caledonia,Vermont,NA,44.5416243,-72.3486803,ME-VT0085
vt.uscongress.eastern.1800,Montpelier,Caledonia,Vermont,7049,44.2664485,-72.5715237,ME-VT0123
vt.uscongress.eastern.1800,Peacham,Caledonia,Vermont,NA,44.3286166,-72.1704048,ME-VT0141
vt.uscongress.eastern.1800,Saint Johnsbury,Caledonia,Vermont,NA,44.4192627,-72.0151183,ME-VT0166
vt.uscongress.eastern.1800,Guildhall,Essex,Vermont,NA,44.56919224,-71.5836525,ME-VT0081
vt.uscongress.eastern.1800,Chelsea,Orange,Vermont,NA,43.989788,-72.4475994,ME-VT0042
vt.uscongress.eastern.1800,Fairlee,Orange,Vermont,NA,43.9053567,-72.1518675,ME-VT0067
vt.uscongress.eastern.1800,Newbury,Orange,Vermont,NA,44.08561219,-72.07580566,ME-VT0131
vt.uscongress.eastern.1800,Randolph,Orange,Vermont,NA,43.9247446,-72.6656948,ME-VT0152
vt.uscongress.eastern.1800,Roxbury,Orange,Vermont,NA,44.0939388,-72.7329823,ME-VT0159
vt.uscongress.eastern.1800,Washington,Orange,Vermont,NA,44.105619,-72.432601,ME-VT0211
vt.uscongress.eastern.1800,Brattleborough,Windham,Vermont,7044,42.856099,-72.564186,ME-VT0024
vt.uscongress.eastern.1800,Dummerston,Windham,Vermont,NA,42.9215017,-72.5838146,ME-VT0058
vt.uscongress.eastern.1800,Guilford,Windham,Vermont,NA,42.8170235,-72.575487,ME-VT0082
vt.uscongress.eastern.1800,Halifax,Windham,Vermont,NA,42.7698048,-72.7453716,ME-VT0083
vt.uscongress.eastern.1800,Hinsdale,Windham,Vermont,NA,42.7620271,-72.5134223,ME-VT0202
vt.uscongress.eastern.1800,Jamica,Windham,Vermont,NA,43.1003556,-72.7784296,ME-VT0097
vt.uscongress.eastern.1800,Londonberry,Windham,Vermont,NA,43.2264643,-72.8064866,ME-VT0106
vt.uscongress.eastern.1800,Marlborough,Windham,Vermont,NA,42.859526,-72.7259271,ME-VT0114
vt.uscongress.eastern.1800,New Fane,Windham,Vermont,NA,42.9856736,-72.6559313,ME-VT0132
vt.uscongress.eastern.1800,Putney,Windham,Vermont,NA,42.975268,-72.5217237,ME-VT0151
vt.uscongress.eastern.1800,Rockingham,Windham,Vermont,NA,43.1876028,-72.4889288,ME-VT0158
vt.uscongress.eastern.1800,Stratton,Windham,Vermont,NA,43.0428562,-72.9109334,ME-VT0189
vt.uscongress.eastern.1800,Townsend,Windham,Vermont,NA,43.0472267,-72.6678428,ME-VT0197
vt.uscongress.eastern.1800,Wardsborough,Windham,Vermont,NA,43.0409512,-72.7897975,ME-VT0209
vt.uscongress.eastern.1800,Westminster,Windham,Vermont,NA,43.0678307,-72.4587404,ME-VT0220
vt.uscongress.eastern.1800,Whitingham,Windham,Vermont,NA,42.7892488,-72.885098,ME-VT0226
vt.uscongress.eastern.1800,Wilmington,Windham,Vermont,NA,42.8683889,-72.8714468,ME-VT0229
vt.uscongress.eastern.1800,Andover,Windsor,Vermont,NA,43.2773586,-72.6965278,ME-VT0004
vt.uscongress.eastern.1800,Barnard,Windsor,Vermont,NA,43.728679,-72.6189876,ME-VT0009
vt.uscongress.eastern.1800,Bethel,Windsor,Vermont,NA,43.8332779,-72.633995,ME-VT0018
vt.uscongress.eastern.1800,Chester,Windsor,Vermont,NA,43.2628476,-72.5951082,ME-VT0043
vt.uscongress.eastern.1800,Hartland,Windsor,Vermont,NA,43.540636,-72.3989314,ME-VT0087
vt.uscongress.eastern.1800,Pomfret,Windsor,Vermont,NA,43.7270391,-72.4801821,ME-VT0148
vt.uscongress.eastern.1800,Reading,Windsor,Vermont,NA,43.4893362,-72.5914616,ME-VT0153
vt.uscongress.eastern.1800,Royalton,Windsor,Vermont,NA,43.8176574,-72.5427505,ME-VT0160
vt.uscongress.eastern.1800,Windsor,Windsor,Vermont,7061,43.477535,-72.401154,ME-VT0231
vt.congress.eastern.runoff.1800,Billymead,Caledonia,Vermont,NA,44.6331085,-72.0256525,ME-VT0192
vt.congress.eastern.runoff.1800,Cabot,Caledonia,Vermont,NA,44.4014456,-72.3123248,ME-VT0034
vt.congress.eastern.runoff.1800,Calais,Caledonia,Vermont,NA,44.363296,-72.4663426,ME-VT0035
vt.congress.eastern.runoff.1800,Danville,Caledonia,Vermont,NA,44.4114954,-72.14009,ME-VT0053
vt.congress.eastern.runoff.1800,Hardwick,Caledonia,Vermont,NA,44.5416243,-72.3486803,ME-VT0085
vt.congress.eastern.runoff.1800,Montpelier,Caledonia,Vermont,7049,44.2664485,-72.5715237,ME-VT0123
vt.congress.eastern.runoff.1800,Peacham,Caledonia,Vermont,NA,44.3286166,-72.1704048,ME-VT0141
vt.congress.eastern.runoff.1800,Ryegate,Caledonia,Vermont,NA,44.2387639,-72.1160864,ME-VT0163
vt.congress.eastern.runoff.1800,Saint Johnsbury,Caledonia,Vermont,NA,44.4192627,-72.0151183,ME-VT0166
vt.congress.eastern.runoff.1800,Sheffield,Caledonia,Vermont,NA,44.6019975,-72.1139881,ME-VT0172
vt.congress.eastern.runoff.1800,Granby,Essex,Vermont,NA,44.5706106,-71.758702,ME-VT0076
vt.congress.eastern.runoff.1800,Guildhall,Essex,Vermont,NA,44.56919224,-71.5836525,ME-VT0081
vt.congress.eastern.runoff.1800,Berlin,Orange,Vermont,NA,44.2152614,-72.5861615,ME-VT0017
vt.congress.eastern.runoff.1800,Bradford,Orange,Vermont,NA,43.9925666,-72.1289793,ME-VT0021
vt.congress.eastern.runoff.1800,Braintree,Orange,Vermont,NA,43.9621778,-72.7046487,ME-VT0022
vt.congress.eastern.runoff.1800,Brookfield,Orange,Vermont,NA,44.0422861,-72.6034385,ME-VT0028
vt.congress.eastern.runoff.1800,Fairlee,Orange,Vermont,NA,43.9053567,-72.1518675,ME-VT0067
vt.congress.eastern.runoff.1800,Newbury,Orange,Vermont,NA,44.08561219,-72.07580566,ME-VT0131
vt.congress.eastern.runoff.1800,Randolph,Orange,Vermont,NA,43.9247446,-72.6656948,ME-VT0152
vt.congress.eastern.runoff.1800,Roxbury,Orange,Vermont,NA,44.0939388,-72.7329823,ME-VT0159
vt.congress.eastern.runoff.1800,Strafford,Orange,Vermont,NA,43.8664568,-72.3778728,ME-VT0188
vt.congress.eastern.runoff.1800,Thetford,Orange,Vermont,NA,43.8250578,-72.2434689,ME-VT0194
vt.congress.eastern.runoff.1800,Turnbridge,Orange,Vermont,NA,43.9198761,-72.4782827,ME-VT0199
vt.congress.eastern.runoff.1800,Vershire,Orange,Vermont,NA,43.9729649,-72.3395077,ME-VT0203
vt.congress.eastern.runoff.1800,Washington,Orange,Vermont,NA,44.105619,-72.432601,ME-VT0211
vt.congress.eastern.runoff.1800,Athens,Windham,Vermont,NA,43.1330826,-72.5679089,ME-VT0006
vt.congress.eastern.runoff.1800,Brattleborough,Windham,Vermont,7044,42.856099,-72.564186,ME-VT0024
vt.congress.eastern.runoff.1800,Dummerston,Windham,Vermont,NA,42.9215017,-72.5838146,ME-VT0058
vt.congress.eastern.runoff.1800,Grafton,Windham,Vermont,NA,43.1716817,-72.6064633,ME-VT0075
vt.congress.eastern.runoff.1800,Guilford,Windham,Vermont,NA,42.8170235,-72.575487,ME-VT0082
vt.congress.eastern.runoff.1800,Halifax,Windham,Vermont,NA,42.7698048,-72.7453716,ME-VT0083
vt.congress.eastern.runoff.1800,Jamaica,Windham,Vermont,NA,43.1003556,-72.7784296,ME-VT0097
vt.congress.eastern.runoff.1800,Londonderry,Windham,Vermont,NA,43.2264643,-72.8064866,ME-VT0106
vt.congress.eastern.runoff.1800,Marlborough,Windham,Vermont,NA,42.859526,-72.7259271,ME-VT0114
vt.congress.eastern.runoff.1800,New Fane,Windham,Vermont,NA,42.9856736,-72.6559313,ME-VT0132
vt.congress.eastern.runoff.1800,Putney,Windham,Vermont,NA,42.975268,-72.5217237,ME-VT0151
vt.congress.eastern.runoff.1800,Rockingham,Windham,Vermont,NA,43.1876028,-72.4889288,ME-VT0158
vt.congress.eastern.runoff.1800,Stratton,Windham,Vermont,NA,43.0428562,-72.9109334,ME-VT0189
vt.congress.eastern.runoff.1800,Townsend,Windham,Vermont,NA,43.0472267,-72.6678428,ME-VT0197
vt.congress.eastern.runoff.1800,Wardsborough,Windham,Vermont,NA,43.0409512,-72.7897975,ME-VT0209
vt.congress.eastern.runoff.1800,Westminster,Windham,Vermont,NA,43.0678307,-72.4587404,ME-VT0220
vt.congress.eastern.runoff.1800,Wilmington,Windham,Vermont,NA,42.8683889,-72.8714468,ME-VT0229
vt.congress.eastern.runoff.1800,Windham,Windham,Vermont,NA,43.1734338,-72.7234481,ME-VT0230
vt.congress.eastern.runoff.1800,Andover,Windsor,Vermont,NA,43.2773586,-72.6965278,ME-VT0004
vt.congress.eastern.runoff.1800,Barnard,Windsor,Vermont,NA,43.728679,-72.6189876,ME-VT0009
vt.congress.eastern.runoff.1800,Bethel,Windsor,Vermont,NA,43.8332779,-72.633995,ME-VT0018
vt.congress.eastern.runoff.1800,Cavendish,Windsor,Vermont,NA,43.39120261,-72.60005951,ME-VT0039
vt.congress.eastern.runoff.1800,Chester,Windsor,Vermont,NA,43.2628476,-72.5951082,ME-VT0043
vt.congress.eastern.runoff.1800,Hartford,Windsor,Vermont,8519,43.66062,-72.3388,ME-VT0086
vt.congress.eastern.runoff.1800,Hartland,Windsor,Vermont,NA,43.540636,-72.3989314,ME-VT0087
vt.congress.eastern.runoff.1800,Ludlow,Windsor,Vermont,NA,43.3959056,-72.7006518,ME-VT0108
vt.congress.eastern.runoff.1800,Norwich,Windsor,Vermont,NA,43.7153482,-72.307869,ME-VT0136
vt.congress.eastern.runoff.1800,Reading,Windsor,Vermont,NA,43.4893362,-72.5914616,ME-VT0153
vt.congress.eastern.runoff.1800,Royalton,Windsor,Vermont,NA,43.8176574,-72.5427505,ME-VT0160
vt.congress.eastern.runoff.1800,Springfield,Windsor,Vermont,7055,43.294056,-72.481704,ME-VT0180
vt.congress.eastern.runoff.1800,Weston,Windsor,Vermont,NA,43.2913008,-72.7929085,ME-VT0222
vt.congress.eastern.runoff.1800,Windsor,Windsor,Vermont,7061,43.477535,-72.401154,ME-VT0231
vt.congress.eastern.runoff.1800,Woodstock,Windsor,Vermont,NA,43.6242442,-72.5185112,ME-VT0236
vt.uscongress.western.1800,Bridport,Addison,Vermont,NA,43.9873736,-73.351164,ME-VT0026
vt.uscongress.western.1800,Bristol,Addison,Vermont,NA,44.1333912,-73.0790076,ME-VT0027
vt.uscongress.western.1800,Ferrisburgh,Addison,Vermont,NA,44.2056098,-73.2462341,ME-VT0069
vt.uscongress.western.1800,Hancock,Addison,Vermont,NA,43.9261192,-72.8412292,ME-VT0084
vt.uscongress.western.1800,Middlebury,Addison,Vermont,7048,44.014153,-73.163784,ME-VT0117
vt.uscongress.western.1800,Monkton,Addison,Vermont,NA,44.2200554,-73.1253991,ME-VT0121
vt.uscongress.western.1800,New Haven,Addison,Vermont,NA,44.1243277,-73.1535713,ME-VT0129
vt.uscongress.western.1800,Vergennes,Addison,Vermont,7059,44.1676604,-73.2553163,ME-VT0201
vt.uscongress.western.1800,Bennington,Bennington,Vermont,7043,42.878414,-73.190562,ME-VT0014
vt.uscongress.western.1800,Pownal,Bennington,Vermont,NA,42.76465819,-73.24001312,ME-VT0150
vt.uscongress.western.1800,Readsborough,Bennington,Vermont,NA,42.7718758,-72.9470426,ME-VT0154
vt.uscongress.western.1800,Shaftsbury,Bennington,Vermont,NA,42.95315594,-73.20808411,ME-VT0170
vt.uscongress.western.1800,Charlotte,Chittenden,Vermont,NA,44.3098476,-73.2609928,ME-VT0041
vt.uscongress.western.1800,Colchester,Chittenden,Vermont,8517,44.5364,-73.20892,ME-VT0046
vt.uscongress.western.1800,Essex,Chittenden,Vermont,8518,44.511,-73.0582,ME-VT0063
vt.uscongress.western.1800,Jericho,Chittenden,Vermont,NA,44.5039395,-72.9976266,ME-VT0098
vt.uscongress.western.1800,Milton,Chittenden,Vermont,NA,44.6397701,-73.1104112,ME-VT0120
vt.uscongress.western.1800,Shelburne,Chittenden,Vermont,NA,44.3806065,-73.227626,ME-VT0173
vt.uscongress.western.1800,Stowe,Chittenden,Vermont,NA,44.4654332,-72.6874023,ME-VT0187
vt.uscongress.western.1800,Underhill,Chittenden,Vermont,NA,44.5258842,-72.9451267,ME-VT0200
vt.uscongress.western.1800,Enosburgh,Franklin,Vermont,NA,44.8689592,-72.7310458,ME-VT0062
vt.uscongress.western.1800,Fairfax,Franklin,Vermont,NA,44.6654963,-73.01032,ME-VT0064
vt.uscongress.western.1800,Georgia,Franklin,Vermont,NA,44.7392004,-73.1301205,ME-VT0072
vt.uscongress.western.1800,Vineyard,Franklin,Vermont,NA,44.8769853,-73.3387437,ME-VT0096
vt.uscongress.western.1800,Browington,Orleans,Vermont,NA,44.8266615,-72.1348097,ME-VT0030
vt.uscongress.western.1800,Duncansboro,Orleans,Vermont,7050,44.9417038,-72.2194775,ME-VT0133
vt.uscongress.western.1800,Elmore,Orleans,Vermont,NA,44.5274632,-72.5187486,ME-VT0061
vt.uscongress.western.1800,Benson,Rutland,Vermont,NA,43.7099497,-73.3001233,ME-VT0015
vt.uscongress.western.1800,Orwell,Rutland,Vermont,NA,43.8039502,-73.2978936,ME-VT0138
vt.uscongress.western.1800,Pittsford,Rutland,Vermont,NA,43.7067329,-73.0281647,ME-VT0145
vt.uscongress.western.1800,Rutland,Rutland,Vermont,7053,43.6096702,-72.9777884,ME-VT0162
vt.uscongress.western.1800,Shrewsbury,Rutland,Vermont,NA,43.5089588,-72.8667686,ME-VT0176
vt.governor.1823,Addison,Addison,Vermont,NA,44.0886671,-73.302622,ME-VT0001
vt.governor.1817,Addison,Addison,Vermont,NA,44.0886671,-73.302622,ME-VT0001
vt.governor.1817,Westford,Chittenden,Vermont,NA,44.5983349,-72.9977003,ME-VT0219
vt.governor.1817,Benson,Rutland,Vermont,NA,43.7099497,-73.3001233,ME-VT0015
vt.uscongress.secondballot.easterndistrict.1795,Barnard,Windsor,Vermont,NA,43.728679,-72.6189876,ME-VT0009
vt.uscongress.secondballot.easterndistrict.1795,Hartland,Windsor,Vermont,NA,43.540636,-72.3989314,ME-VT0087
vt.uscongress.secondballot.easterndistrict.1795,Windsor,Windsor,Vermont,7061,43.477535,-72.401154,ME-VT0231
vt.governor.1795,Addison,Addison,Vermont,NA,44.0886671,-73.302622,ME-VT0001
vt.governor.1795,Bridport,Addison,Vermont,NA,43.9873736,-73.351164,ME-VT0026
vt.governor.1795,Bristol,Addison,Vermont,NA,44.1333912,-73.0790076,ME-VT0027
vt.governor.1795,Ferrisburgh,Addison,Vermont,NA,44.2056098,-73.2462341,ME-VT0069
vt.governor.1813,Addison,Addison,Vermont,NA,44.0886671,-73.302622,ME-VT0001
vt.governor.1813,Bridport,Addison,Vermont,NA,43.9873736,-73.351164,ME-VT0026
vt.governor.1813,Bristol,Addison,Vermont,NA,44.1333912,-73.0790076,ME-VT0027
vt.governor.1813,Cornwall,Addison,Vermont,NA,43.960893,-73.2103951,ME-VT0049
vt.governor.1813,Ferrisburgh,Addison,Vermont,NA,44.2056098,-73.2462341,ME-VT0069
vt.governor.1813,Hancock,Addison,Vermont,NA,43.9261192,-72.8412292,ME-VT0084
vt.governor.1813,Kingston,Addison,Vermont,NA,43.9855014,-72.8467412,ME-VT0078
vt.governor.1813,Leicester,Addison,Vermont,NA,43.8667293,-73.1078914,ME-VT0103
vt.governor.1813,Lincoln,Addison,Vermont,NA,44.1058928,-72.9970612,ME-VT0105
vt.governor.1813,Middlebury,Addison,Vermont,7048,44.014153,-73.163784,ME-VT0117
vt.governor.1813,Monkton,Addison,Vermont,NA,44.2200554,-73.1253991,ME-VT0121
vt.governor.1813,New Haven,Addison,Vermont,NA,44.1243277,-73.1535713,ME-VT0129
vt.governor.1813,Panton,Addison,Vermont,NA,44.1487891,-73.3409878,ME-VT0139
vt.governor.1813,Salisbury,Addison,Vermont,NA,43.8964511,-73.0998363,ME-VT0168
vt.governor.1813,Shoreham,Addison,Vermont,NA,43.8936708,-73.3159515,ME-VT0175
vt.governor.1813,Starksboro,Addison,Vermont,NA,44.2272782,-73.0573427,ME-VT0184
vt.governor.1813,Vergennes,Addison,Vermont,7059,44.1676604,-73.2553163,ME-VT0201
vt.governor.1813,Warren,Addison,Vermont,NA,44.112005,-72.8559474,ME-VT0210
vt.governor.1813,Weybridge,Addison,Vermont,NA,44.0498636,-73.2143577,ME-VT0223
vt.governor.1813,Whiting,Addison,Vermont,NA,43.8639503,-73.2003929,ME-VT0225
vt.governor.1813,Arlington,Bennington,Vermont,NA,43.0747996,-73.1539954,ME-VT0005
vt.governor.1813,Bennington,Bennington,Vermont,7043,42.878414,-73.190562,ME-VT0014
vt.governor.1813,Dorset,Bennington,Vermont,NA,43.2548074,-73.0987801,ME-VT0056
vt.governor.1813,Landgrove,Bennington,Vermont,NA,43.2624457,-72.8548986,ME-VT0102
vt.governor.1813,Manchester,Bennington,Vermont,NA,43.1636875,-73.0723268,ME-VT0112
vt.governor.1813,Peru,Bennington,Vermont,NA,43.2297974,-72.8978781,ME-VT0142
vt.governor.1813,Pownal,Bennington,Vermont,NA,42.76465819,-73.24001312,ME-VT0150
vt.governor.1813,Readsboro,Bennington,Vermont,NA,42.7718758,-72.9470426,ME-VT0154
vt.governor.1813,Rupert,Bennington,Vermont,NA,43.2597979,-73.2228853,ME-VT0161
vt.governor.1813,Sandgate,Bennington,Vermont,NA,43.1477916,-73.1994243,ME-VT0169
vt.governor.1813,Shaftsbury,Bennington,Vermont,NA,42.95315594,-73.20808411,ME-VT0170
vt.governor.1813,Stamford,Bennington,Vermont,NA,42.7561535,-73.0679253,ME-VT0182
vt.governor.1813,Sunderland,Bennington,Vermont,NA,43.1113938,-73.1180595,ME-VT0191
vt.governor.1813,Winhall,Bennington,Vermont,NA,43.1558097,-72.9133169,ME-VT0232
vt.governor.1813,Woodford,Bennington,Vermont,NA,42.8803576,-73.0795486,ME-VT0235
vt.governor.1813,Barnet,Caledonia,Vermont,NA,44.2968323,-72.0493779,ME-VT0010
vt.governor.1813,Burke,Caledonia,Vermont,NA,44.618233,-71.9368346,ME-VT0032
vt.governor.1813,Cabot,Caledonia,Vermont,NA,44.4014456,-72.3123248,ME-VT0034
vt.governor.1813,Danville,Caledonia,Vermont,NA,44.4114954,-72.14009,ME-VT0053
vt.governor.1813,Groton,Caledonia,Vermont,NA,44.2161706,-72.20180511,ME-VT0080
vt.governor.1813,Hardwick,Caledonia,Vermont,NA,44.5416243,-72.3486803,ME-VT0085
vt.governor.1813,Kirby,Caledonia,Vermont,NA,44.4989626,-71.9069249,ME-VT0101
vt.governor.1813,Lyndon,Caledonia,Vermont,NA,44.5453088,-72.0000723,ME-VT0110
vt.governor.1813,Peacham,Caledonia,Vermont,NA,44.3286166,-72.1704048,ME-VT0141
vt.governor.1813,Ryegate,Caledonia,Vermont,NA,44.2387639,-72.1160864,ME-VT0163
vt.governor.1813,Saint Johnsbury,Caledonia,Vermont,NA,44.4192627,-72.0151183,ME-VT0166
vt.governor.1813,Sheffield,Caledonia,Vermont,NA,44.6019975,-72.1139881,ME-VT0172
vt.governor.1813,Sutton,Caledonia,Vermont,NA,44.6331085,-72.0256525,ME-VT0192
vt.governor.1813,Walden,Caledonia,Vermont,NA,44.4497781,-72.2231563,ME-VT0206
vt.governor.1813,Waterford,Caledonia,Vermont,NA,44.3729726,-71.9508384,ME-VT0213
vt.governor.1813,Wheelock,Caledonia,Vermont,NA,44.5882056,-72.088507,ME-VT0224
vt.governor.1813,Woodbury,Caledonia,Vermont,NA,44.4408888,-72.4164957,ME-VT0234
vt.governor.1813,Bolton,Chittenden,Vermont,NA,44.3726476,-72.8787625,ME-VT0020
vt.governor.1813,Burlington,Chittenden,Vermont,7045,44.4919905,-73.2393625,ME-VT0033
vt.governor.1813,Charlotte,Chittenden,Vermont,NA,44.3098476,-73.2609928,ME-VT0041
vt.governor.1813,Essex,Chittenden,Vermont,8518,44.511,-73.0582,ME-VT0063
vt.governor.1813,Hinesburgh,Chittenden,Vermont,NA,44.3292199,-73.110679,ME-VT0089
vt.governor.1813,Huntington,Chittenden,Vermont,NA,44.3253512,-72.9873459,ME-VT0092
vt.governor.1813,Jericho,Chittenden,Vermont,NA,44.5039395,-72.9976266,ME-VT0098
vt.governor.1813,Milton,Chittenden,Vermont,NA,44.6397701,-73.1104112,ME-VT0120
vt.governor.1813,Richmond,Chittenden,Vermont,NA,44.4053135,-72.9924128,ME-VT0156
vt.governor.1813,Saint George,Chittenden,Vermont,NA,44.3775898,-73.1253641,ME-VT0165
vt.governor.1813,Shelburne,Chittenden,Vermont,NA,44.3806065,-73.227626,ME-VT0173
vt.governor.1813,Underhill,Chittenden,Vermont,NA,44.5258842,-72.9451267,ME-VT0200
vt.governor.1813,Westford,Chittenden,Vermont,NA,44.5983349,-72.9977003,ME-VT0219
vt.governor.1813,Williston,Chittenden,Vermont,NA,44.4454432,-73.099194,ME-VT0228
vt.governor.1813,Brunswick,Essex,Vermont,NA,44.7281752,-71.6749551,ME-VT0031
vt.governor.1813,Canaan,Essex,Vermont,NA,44.9964934,-71.5383736,ME-VT0037
vt.governor.1813,Concord,Essex,Vermont,NA,44.4209235,-71.8369768,ME-VT0047
vt.governor.1813,Granby,Essex,Vermont,NA,44.5706106,-71.758702,ME-VT0076
vt.governor.1813,Guildhall,Essex,Vermont,NA,44.56919224,-71.5836525,ME-VT0081
vt.governor.1813,Lemington,Essex,Vermont,NA,44.9236819,-71.5553619,ME-VT0104
vt.governor.1813,Lunenburgh,Essex,Vermont,NA,44.4631136,-71.6820321,ME-VT0109
vt.governor.1813,Maidstone,Essex,Vermont,NA,44.6486636,-71.5720307,ME-VT0111
vt.governor.1813,Minehead,Essex,Vermont,NA,44.7538175,-71.6324096,ME-VT0019
vt.governor.1813,Newark,Essex,Vermont,NA,44.7019193,-71.9227434,ME-VT0130
vt.governor.1813,Swanton,Franklin,Vermont,7058,44.91810226,-73.12429047,ME-VT0193
vt.governor.1813,Alburgh,Grande Isle,Vermont,NA,44.9750541,-73.3002239,ME-VT0003
vt.governor.1813,Grand Isle,Grande Isle,Vermont,NA,44.7225436,-73.2923538,ME-VT0077
vt.governor.1813,North Hero,Grande Isle,Vermont,NA,44.8311432,-73.273505,ME-VT0134
vt.governor.1813,South Hero,Grande Isle,Vermont,NA,44.6453228,-73.3023532,ME-VT0179
vt.governor.1813,Vineyard,Grande Isle,Vermont,NA,44.8769853,-73.3387437,ME-VT0096
vt.governor.1813,Barre,Jefferson,Vermont,7041,44.1991117,-72.5079932,ME-VT0011
vt.governor.1813,Berlin,Jefferson,Vermont,NA,44.2152614,-72.5861615,ME-VT0017
vt.governor.1813,Calais,Jefferson,Vermont,NA,44.363296,-72.4663426,ME-VT0035
vt.governor.1813,Duxbury,Jefferson,Vermont,NA,44.3270012,-72.7526175,ME-VT0059
vt.governor.1813,Marshfield,Jefferson,Vermont,NA,44.3508405,-72.3539905,ME-VT0115
vt.governor.1813,Middlesex,Jefferson,Vermont,NA,44.2928358,-72.6792807,ME-VT0118
vt.governor.1813,Montpelier,Jefferson,Vermont,7049,44.2664485,-72.5715237,ME-VT0123
vt.governor.1813,Moretown,Jefferson,Vermont,NA,44.2508918,-72.7609496,ME-VT0124
vt.governor.1813,Northfield,Jefferson,Vermont,7051,44.15117264,-72.65649414,ME-VT0135
vt.governor.1813,Plainfield,Jefferson,Vermont,NA,44.2781151,-72.4264926,ME-VT0146
vt.governor.1813,Stow,Jefferson,Vermont,NA,44.4654332,-72.6874023,ME-VT0187
vt.governor.1813,Waitsfield,Jefferson,Vermont,NA,44.1926386,-72.7798479,ME-VT0205
vt.governor.1813,Waterbury,Jefferson,Vermont,7060,44.33962,-72.750363,ME-VT0212
vt.governor.1813,Worcester,Jefferson,Vermont,NA,44.37331,-72.5496503,ME-VT0237
vt.governor.1813,Bradford,Orange,Vermont,NA,43.9925666,-72.1289793,ME-VT0021
vt.governor.1813,Braintree,Orange,Vermont,NA,43.9621778,-72.7046487,ME-VT0022
vt.governor.1813,Brookfield,Orange,Vermont,NA,44.0422861,-72.6034385,ME-VT0028
vt.governor.1813,Chelsea,Orange,Vermont,NA,43.989788,-72.4475994,ME-VT0042
vt.governor.1813,Corinth,Orange,Vermont,NA,44.0275697,-72.2797442,ME-VT0048
vt.governor.1813,Fairlee,Orange,Vermont,NA,43.9053567,-72.1518675,ME-VT0067
vt.governor.1813,Newbury,Orange,Vermont,NA,44.08561219,-72.07580566,ME-VT0131
vt.governor.1813,Orange,Orange,Vermont,NA,44.148376,-72.4030806,ME-VT0137
vt.governor.1813,Randolph,Orange,Vermont,NA,43.9247446,-72.6656948,ME-VT0152
vt.governor.1813,Roxbury,Orange,Vermont,NA,44.0939388,-72.7329823,ME-VT0159
vt.governor.1813,Strafford,Orange,Vermont,NA,43.8664568,-72.3778728,ME-VT0188
vt.governor.1813,Thetford,Orange,Vermont,NA,43.8250578,-72.2434689,ME-VT0194
vt.governor.1813,Topsham,Orange,Vermont,NA,44.1281193,-72.2550956,ME-VT0196
vt.governor.1813,Turnbridge,Orange,Vermont,NA,43.9198761,-72.4782827,ME-VT0199
vt.governor.1813,Vershire,Orange,Vermont,NA,43.9729649,-72.3395077,ME-VT0203
vt.governor.1813,Washington,Orange,Vermont,NA,44.105619,-72.432601,ME-VT0211
vt.governor.1813,Williamstown,Orange,Vermont,NA,44.1217292,-72.5414937,ME-VT0227
vt.governor.1813,Barton,Orleans,Vermont,NA,44.7480805,-72.176258,ME-VT0012
vt.governor.1813,Browington,Orleans,Vermont,NA,44.8266615,-72.1348097,ME-VT0030
vt.governor.1813,Coventry,Orleans,Vermont,NA,44.867617,-72.2616067,ME-VT0050
vt.governor.1813,Craftsbury,Orleans,Vermont,NA,44.6367179,-72.3726071,ME-VT0051
vt.governor.1813,Derby,Orleans,Vermont,NA,44.9639953,-72.1345069,ME-VT0054
vt.governor.1813,Duncansboro,Orleans,Vermont,7050,44.9417038,-72.2194775,ME-VT0133
vt.governor.1813,Eden,Orleans,Vermont,NA,44.7072718,-72.5456691,ME-VT0060
vt.governor.1813,Elmore,Orleans,Vermont,NA,44.5274632,-72.5187486,ME-VT0061
vt.governor.1813,Glover,Orleans,Vermont,NA,44.7069038,-72.1869766,ME-VT0073
vt.governor.1813,Greensboro,Orleans,Vermont,NA,44.6107836,-72.3046033,ME-VT0079
vt.governor.1813,Holland,Orleans,Vermont,NA,44.9684078,-72.0027446,ME-VT0090
vt.governor.1813,Hydepark,Orleans,Vermont,NA,44.5939318,-72.6165192,ME-VT0093
vt.governor.1813,Irasburg,Orleans,Vermont,NA,44.8033816,-72.2795489,ME-VT0095
vt.governor.1813,Kellyvale,Orleans,Vermont,NA,44.7992084,-72.4476024,ME-VT0107
vt.governor.1813,Lutterloh,Orleans,Vermont,NA,44.7309405,-72.3798076,ME-VT0002
vt.governor.1813,Morgan,Orleans,Vermont,NA,44.892455,-71.9747169,ME-VT0125
vt.governor.1813,Morristown,Orleans,Vermont,NA,44.5572744,-72.6237275,ME-VT0126
vt.governor.1813,Navy,Orleans,Vermont,NA,44.8443616,-72.0330896,ME-VT0040
vt.governor.1813,Troy,Orleans,Vermont,NA,44.9042338,-72.4058438,ME-VT0198
vt.governor.1813,Westfield,Orleans,Vermont,NA,44.8894911,-72.4284431,ME-VT0218
vt.governor.1813,Wolcott,Orleans,Vermont,NA,44.5464417,-72.4584429,ME-VT0233
vt.governor.1813,Athens,Windham,Vermont,NA,43.1330826,-72.5679089,ME-VT0006
vt.governor.1807,Addison,Addison,Vermont,NA,44.0886671,-73.302622,ME-VT0001
vt.governor.1807,Bridport,Addison,Vermont,NA,43.9873736,-73.351164,ME-VT0026
vt.governor.1807,Bristol,Addison,Vermont,NA,44.1333912,-73.0790076,ME-VT0027
vt.governor.1807,Hancock,Addison,Vermont,NA,43.9261192,-72.8412292,ME-VT0084
vt.governor.1807,Monkton,Addison,Vermont,NA,44.2200554,-73.1253991,ME-VT0121
vt.governor.1807,Newhaven,Addison,Vermont,NA,44.1243277,-73.1535713,ME-VT0129
vt.governor.1807,Vergennes,Addison,Vermont,7059,44.1676604,-73.2553163,ME-VT0201
vt.governor.1807,Warren,Addison,Vermont,NA,44.112005,-72.8559474,ME-VT0210
vt.governor.1807,Bennington,Bennington,Vermont,7043,42.878414,-73.190562,ME-VT0014
vt.governor.1807,Peru,Bennington,Vermont,NA,43.2297974,-72.8978781,ME-VT0142
vt.governor.1807,Pownal,Bennington,Vermont,NA,42.76465819,-73.24001312,ME-VT0150
vt.governor.1807,Readsboro,Bennington,Vermont,NA,42.7718758,-72.9470426,ME-VT0154
vt.governor.1807,Shaftsbury,Bennington,Vermont,NA,42.95315594,-73.20808411,ME-VT0170
vt.governor.1807,Winhall,Bennington,Vermont,NA,43.1558097,-72.9133169,ME-VT0232
vt.governor.1807,Burke,Caledonia,Vermont,NA,44.618233,-71.9368346,ME-VT0032
vt.governor.1807,Calais,Caledonia,Vermont,NA,44.363296,-72.4663426,ME-VT0035
vt.governor.1807,Danville,Caledonia,Vermont,NA,44.4114954,-72.14009,ME-VT0053
vt.governor.1807,Hardwick,Caledonia,Vermont,NA,44.5416243,-72.3486803,ME-VT0085
vt.governor.1807,Marshfield,Caledonia,Vermont,NA,44.3508405,-72.3539905,ME-VT0115
vt.governor.1807,Montpelier,Caledonia,Vermont,7049,44.2664485,-72.5715237,ME-VT0123
vt.governor.1807,Saint Johnsbury,Caledonia,Vermont,NA,44.4192627,-72.0151183,ME-VT0166
vt.governor.1807,Sheffield,Caledonia,Vermont,NA,44.6019975,-72.1139881,ME-VT0172
vt.governor.1807,Walden,Caledonia,Vermont,NA,44.4497781,-72.2231563,ME-VT0206
vt.governor.1807,Bolton,Chittenden,Vermont,NA,44.3726476,-72.8787625,ME-VT0020
vt.governor.1807,Burlington,Chittenden,Vermont,7045,44.4919905,-73.2393625,ME-VT0033
vt.governor.1807,Charlotte,Chittenden,Vermont,NA,44.3098476,-73.2609928,ME-VT0041
vt.governor.1807,Colchester,Chittenden,Vermont,8517,44.5364,-73.20892,ME-VT0046
vt.governor.1807,Essex,Chittenden,Vermont,8518,44.511,-73.0582,ME-VT0063
vt.governor.1807,Jericho,Chittenden,Vermont,NA,44.5039395,-72.9976266,ME-VT0098
vt.governor.1807,Milton,Chittenden,Vermont,NA,44.6397701,-73.1104112,ME-VT0120
vt.governor.1807,Moretown,Chittenden,Vermont,NA,44.2508918,-72.7609496,ME-VT0124
vt.governor.1807,Richmond,Chittenden,Vermont,NA,44.4053135,-72.9924128,ME-VT0156
vt.governor.1807,Shelbourne,Chittenden,Vermont,NA,44.3806065,-73.227626,ME-VT0173
vt.governor.1807,Stow,Chittenden,Vermont,NA,44.4654332,-72.6874023,ME-VT0187
vt.governor.1807,Underhill,Chittenden,Vermont,NA,44.5258842,-72.9451267,ME-VT0200
vt.governor.1807,Waterbury,Chittenden,Vermont,7060,44.33962,-72.750363,ME-VT0212
vt.governor.1807,Brunswick,Essex,Vermont,NA,44.7281752,-71.6749551,ME-VT0031
vt.governor.1807,Guildhall,Essex,Vermont,NA,44.56919224,-71.5836525,ME-VT0081
vt.governor.1807,Lemington,Essex,Vermont,NA,44.9236819,-71.5553619,ME-VT0104
vt.governor.1807,Lunenburgh,Essex,Vermont,NA,44.4631136,-71.6820321,ME-VT0109
vt.governor.1807,Berkshire,Franklin,Vermont,NA,44.9717124,-72.7754147,ME-VT0016
vt.governor.1807,Fairfax,Franklin,Vermont,NA,44.6654963,-73.01032,ME-VT0064
vt.governor.1807,Highgate,Franklin,Vermont,NA,44.9565227,-73.0511203,ME-VT0088
vt.governor.1807,Huntsburgh,Franklin,Vermont,NA,44.9812585,-72.9165547,ME-VT0071
vt.governor.1807,Johnson,Franklin,Vermont,NA,44.6356063,-72.6803979,ME-VT0099
vt.governor.1807,Montgomery,Franklin,Vermont,NA,44.9025466,-72.63818,ME-VT0122
vt.governor.1807,Richford,Franklin,Vermont,NA,44.9969955,-72.6713018,ME-VT0155
vt.governor.1807,Vineyard,Grande Isle,Vermont,NA,44.8769853,-73.3387437,ME-VT0096
vt.governor.1807,Bradford,Orange,Vermont,NA,43.9925666,-72.1289793,ME-VT0021
vt.governor.1807,Braintree,Orange,Vermont,NA,43.9621778,-72.7046487,ME-VT0022
vt.governor.1807,Chelsea,Orange,Vermont,NA,43.989788,-72.4475994,ME-VT0042
vt.governor.1807,Northfield,Orange,Vermont,7051,44.15117264,-72.65649414,ME-VT0135
vt.governor.1807,Randolph,Orange,Vermont,NA,43.9247446,-72.6656948,ME-VT0152
vt.governor.1807,Roxbury,Orange,Vermont,NA,44.0939388,-72.7329823,ME-VT0159
vt.governor.1807,Turnbridge,Orange,Vermont,NA,43.9198761,-72.4782827,ME-VT0199
vt.governor.1807,Washington,Orange,Vermont,NA,44.105619,-72.432601,ME-VT0211
vt.governor.1807,Browington,Orleans,Vermont,NA,44.8266615,-72.1348097,ME-VT0030
vt.governor.1807,Elmore,Orleans,Vermont,NA,44.5274632,-72.5187486,ME-VT0061
vt.governor.1807,Glover,Orleans,Vermont,NA,44.7069038,-72.1869766,ME-VT0073
vt.governor.1807,Holland,Orleans,Vermont,NA,44.9684078,-72.0027446,ME-VT0090
vt.governor.1807,Lutterloh,Orleans,Vermont,NA,44.7309405,-72.3798076,ME-VT0002
vt.governor.1807,Navy,Orleans,Vermont,NA,44.8443616,-72.0330896,ME-VT0040
vt.governor.1807,Benson,Rutland,Vermont,NA,43.7099497,-73.3001233,ME-VT0015
vt.governor.1807,Middletown,Rutland,Vermont,NA,43.4856255,-73.1181624,ME-VT0119
vt.governor.1807,Philadelphia,Rutland,Vermont,NA,43.77431665,-72.97359467,ME-VT0143
vt.governor.1807,Pittsfield,Rutland,Vermont,NA,43.7722884,-72.8128828,ME-VT0144
vt.governor.1807,Pittsford,Rutland,Vermont,NA,43.7067329,-73.0281647,ME-VT0145
vt.governor.1807,Rutland,Rutland,Vermont,7053,43.6096702,-72.9777884,ME-VT0162
vt.governor.1807,Shrewsbury,Rutland,Vermont,NA,43.5089588,-72.8667686,ME-VT0176
vt.governor.1807,Brattleboro,Windham,Vermont,7044,42.856099,-72.564186,ME-VT0024
vt.governor.1807,Dummerston,Windham,Vermont,NA,42.9215017,-72.5838146,ME-VT0058
vt.governor.1807,Grafton,Windham,Vermont,NA,43.1716817,-72.6064633,ME-VT0075
vt.governor.1807,Guildford,Windham,Vermont,NA,42.8170235,-72.575487,ME-VT0082
vt.governor.1807,Halifax,Windham,Vermont,NA,42.7698048,-72.7453716,ME-VT0083
vt.governor.1807,Jamica,Windham,Vermont,NA,43.1003556,-72.7784296,ME-VT0097
vt.governor.1807,Londonderry,Windham,Vermont,NA,43.2264643,-72.8064866,ME-VT0106
vt.governor.1807,Marlborough,Windham,Vermont,NA,42.859526,-72.7259271,ME-VT0114
vt.governor.1807,New Fane,Windham,Vermont,NA,42.9856736,-72.6559313,ME-VT0132
vt.governor.1807,Putney,Windham,Vermont,NA,42.975268,-72.5217237,ME-VT0151
vt.governor.1807,Rockingham,Windham,Vermont,NA,43.1876028,-72.4889288,ME-VT0158
vt.governor.1807,Somerset,Windham,Vermont,NA,42.9502858,-72.9862472,ME-VT0178
vt.governor.1807,Stratton,Windham,Vermont,NA,43.0428562,-72.9109334,ME-VT0189
vt.governor.1807,Townsend,Windham,Vermont,NA,43.0472267,-72.6678428,ME-VT0197
vt.governor.1807,Vernon,Windham,Vermont,NA,42.7620271,-72.5134223,ME-VT0202
vt.governor.1807,Wardsboro,Windham,Vermont,NA,43.0409512,-72.7897975,ME-VT0209
vt.governor.1807,Westminster,Windham,Vermont,NA,43.0678307,-72.4587404,ME-VT0220
vt.governor.1807,Whitingham,Windham,Vermont,NA,42.7892488,-72.885098,ME-VT0226
vt.governor.1807,Wilmington,Windham,Vermont,NA,42.8683889,-72.8714468,ME-VT0229
vt.governor.1807,Barnard,Windsor,Vermont,NA,43.728679,-72.6189876,ME-VT0009
vt.governor.1807,Bethel,Windsor,Vermont,NA,43.8332779,-72.633995,ME-VT0018
vt.governor.1807,Cavendish,Windsor,Vermont,NA,43.39120261,-72.60005951,ME-VT0039
vt.governor.1807,Chester,Windsor,Vermont,NA,43.2628476,-72.5951082,ME-VT0043
vt.governor.1807,Hartford,Windsor,Vermont,8519,43.66062,-72.3388,ME-VT0086
vt.governor.1807,Hartland,Windsor,Vermont,NA,43.540636,-72.3989314,ME-VT0087
vt.governor.1807,Pomfret,Windsor,Vermont,NA,43.7270391,-72.4801821,ME-VT0148
vt.governor.1807,Reading,Windsor,Vermont,NA,43.4893362,-72.5914616,ME-VT0153
vt.governor.1807,Rochester,Windsor,Vermont,NA,43.8745646,-72.808018,ME-VT0157
vt.governor.1807,Royalton,Windsor,Vermont,NA,43.8176574,-72.5427505,ME-VT0160
vt.governor.1807,Sharon,Windsor,Vermont,NA,43.7852344,-72.4541709,ME-VT0171
vt.governor.1807,Springfield,Windsor,Vermont,7055,43.294056,-72.481704,ME-VT0180
vt.governor.1807,Stockbridge,Windsor,Vermont,NA,43.7813195,-72.7885437,ME-VT0186
vt.governor.1793,Shoreham,Addison,Vermont,NA,43.8936708,-73.3159515,ME-VT0175
vt.governor.1793,Benson,Rutland,Vermont,NA,43.7099497,-73.3001233,ME-VT0015
vt.governor.1793,Castleton,Rutland,Vermont,NA,43.6106223,-73.179832,ME-VT0038
vt.governor.1793,Chittendon,Rutland,Vermont,NA,43.7271064,-72.9428417,ME-VT0044
vt.governor.1793,Clarendon,Rutland,Vermont,NA,43.5478671,-72.9696779,ME-VT0045
vt.governor.1793,Fairhaven,Rutland,Vermont,7047,43.595701,-73.270598,ME-VT0066
vt.governor.1793,Middletown,Rutland,Vermont,NA,43.4856255,-73.1181624,ME-VT0119
vt.governor.1793,Orwell,Rutland,Vermont,NA,43.8039502,-73.2978936,ME-VT0138
vt.governor.1793,Pittsford,Rutland,Vermont,NA,43.7067329,-73.0281647,ME-VT0145
vt.governor.1793,Poultney,Rutland,Vermont,NA,43.5170325,-73.2362261,ME-VT0149
vt.governor.1793,Rutland,Rutland,Vermont,7053,43.6096702,-72.9777884,ME-VT0162
vt.governor.1793,Shrewsbury,Rutland,Vermont,NA,43.5089588,-72.8667686,ME-VT0176
vt.uscongress.western.secondballot.1793,Addison,Addison,Vermont,NA,44.0886671,-73.302622,ME-VT0001
vt.uscongress.western.secondballot.1793,Bridport,Addison,Vermont,NA,43.9873736,-73.351164,ME-VT0026
vt.uscongress.western.secondballot.1793,Bristol,Addison,Vermont,NA,44.1333912,-73.0790076,ME-VT0027
vt.uscongress.western.secondballot.1793,Cornwall,Addison,Vermont,NA,43.960893,-73.2103951,ME-VT0049
vt.uscongress.western.secondballot.1793,Ferrisburgh,Addison,Vermont,NA,44.2056098,-73.2462341,ME-VT0069
vt.uscongress.western.secondballot.1793,Hancock,Addison,Vermont,NA,43.9261192,-72.8412292,ME-VT0084
vt.uscongress.western.secondballot.1793,Kingston,Addison,Vermont,NA,43.9855014,-72.8467412,ME-VT0078
vt.uscongress.western.secondballot.1793,Leicester,Addison,Vermont,NA,43.8667293,-73.1078914,ME-VT0103
vt.uscongress.western.secondballot.1793,Middlebury,Addison,Vermont,7048,44.014153,-73.163784,ME-VT0117
vt.uscongress.western.secondballot.1793,Monkton,Addison,Vermont,NA,44.2200554,-73.1253991,ME-VT0121
vt.uscongress.western.secondballot.1793,New Haven,Addison,Vermont,NA,44.1243277,-73.1535713,ME-VT0129
vt.uscongress.western.secondballot.1793,Panton,Addison,Vermont,NA,44.1487891,-73.3409878,ME-VT0139
vt.uscongress.western.secondballot.1793,Salisbury,Addison,Vermont,NA,43.8964511,-73.0998363,ME-VT0168
vt.uscongress.western.secondballot.1793,Shoreham,Addison,Vermont,NA,43.8936708,-73.3159515,ME-VT0175
vt.uscongress.western.secondballot.1793,Vergennes,Addison,Vermont,7059,44.1676604,-73.2553163,ME-VT0201
vt.uscongress.western.secondballot.1793,Weybridge,Addison,Vermont,NA,44.0498636,-73.2143577,ME-VT0223
vt.uscongress.western.secondballot.1793,Whiting,Addison,Vermont,NA,43.8639503,-73.2003929,ME-VT0225
vt.uscongress.western.secondballot.1793,Arlington,Bennington,Vermont,NA,43.0747996,-73.1539954,ME-VT0005
vt.uscongress.western.secondballot.1793,Bennington,Bennington,Vermont,7043,42.878414,-73.190562,ME-VT0014
vt.uscongress.western.secondballot.1793,Dorset,Bennington,Vermont,NA,43.2548074,-73.0987801,ME-VT0056
vt.uscongress.western.secondballot.1793,Manchester,Bennington,Vermont,NA,43.1636875,-73.0723268,ME-VT0112
vt.uscongress.western.secondballot.1793,Pownal,Bennington,Vermont,NA,42.76465819,-73.24001312,ME-VT0150
vt.uscongress.western.secondballot.1793,Reupert,Bennington,Vermont,NA,43.2597979,-73.2228853,ME-VT0161
vt.uscongress.western.secondballot.1793,Sandgate,Bennington,Vermont,NA,43.1477916,-73.1994243,ME-VT0169
vt.uscongress.western.secondballot.1793,Shaftsbury,Bennington,Vermont,NA,42.95315594,-73.20808411,ME-VT0170
vt.uscongress.western.secondballot.1793,Stamford,Bennington,Vermont,NA,42.7561535,-73.0679253,ME-VT0182
vt.uscongress.western.secondballot.1793,Sunderland,Bennington,Vermont,NA,43.1113938,-73.1180595,ME-VT0191
vt.uscongress.western.secondballot.1793,Bolton,Chittenden,Vermont,NA,44.3726476,-72.8787625,ME-VT0020
vt.uscongress.western.secondballot.1793,Burlington,Chittenden,Vermont,7045,44.4919905,-73.2393625,ME-VT0033
vt.uscongress.western.secondballot.1793,Cambridge,Chittenden,Vermont,NA,44.6447724,-72.8762772,ME-VT0036
vt.uscongress.western.secondballot.1793,Charlotte,Chittenden,Vermont,NA,44.3098476,-73.2609928,ME-VT0041
vt.uscongress.western.secondballot.1793,Duxbury,Chittenden,Vermont,NA,44.3270012,-72.7526175,ME-VT0059
vt.uscongress.western.secondballot.1793,Essex,Chittenden,Vermont,8518,44.511,-73.0582,ME-VT0063
vt.uscongress.western.secondballot.1793,Fairfax,Chittenden,Vermont,NA,44.6654963,-73.01032,ME-VT0064
vt.uscongress.western.secondballot.1793,Fairfield,Chittenden,Vermont,NA,44.8019921,-72.9456936,ME-VT0065
vt.uscongress.western.secondballot.1793,Georgia,Chittenden,Vermont,NA,44.7392004,-73.1301205,ME-VT0072
vt.uscongress.western.secondballot.1793,Hinesburg,Chittenden,Vermont,NA,44.3292199,-73.110679,ME-VT0089
vt.uscongress.western.secondballot.1793,Isle of Motte,Chittenden,Vermont,NA,44.87801174,-73.33854675,ME-VT0204
vt.uscongress.western.secondballot.1793,Jericho,Chittenden,Vermont,NA,44.5039395,-72.9976266,ME-VT0098
vt.uscongress.western.secondballot.1793,Milton,Chittenden,Vermont,NA,44.6397701,-73.1104112,ME-VT0120
vt.uscongress.western.secondballot.1793,New Huntington,Chittenden,Vermont,NA,44.3253512,-72.9873459,ME-VT0092
vt.uscongress.western.secondballot.1793,North Hero,Chittenden,Vermont,NA,44.8311432,-73.273505,ME-VT0134
vt.uscongress.western.secondballot.1793,Saint Albans,Chittenden,Vermont,NA,44.8107132,-73.0835582,ME-VT0164
vt.uscongress.western.secondballot.1793,Shelburne,Chittenden,Vermont,NA,44.3806065,-73.227626,ME-VT0173
vt.uscongress.western.secondballot.1793,South Hero,Chittenden,Vermont,NA,44.6453228,-73.3023532,ME-VT0179
vt.uscongress.western.secondballot.1793,Waterbury,Chittenden,Vermont,7060,44.33962,-72.750363,ME-VT0212
vt.uscongress.western.secondballot.1793,Williston,Chittenden,Vermont,NA,44.4454432,-73.099194,ME-VT0228
vt.uscongress.western.secondballot.1793,Benson,Rutland,Vermont,NA,43.7099497,-73.3001233,ME-VT0015
vt.uscongress.western.secondballot.1793,Brandon,Rutland,Vermont,NA,43.7981195,-73.0876119,ME-VT0023
vt.uscongress.western.secondballot.1793,Castleton,Rutland,Vermont,NA,43.6106223,-73.179832,ME-VT0038
vt.uscongress.western.secondballot.1793,Chittenden,Rutland,Vermont,NA,43.7271064,-72.9428417,ME-VT0044
vt.uscongress.western.secondballot.1793,Clarendon,Rutland,Vermont,NA,43.5478671,-72.9696779,ME-VT0045
vt.uscongress.western.secondballot.1793,Danby,Rutland,Vermont,NA,43.3548341,-73.0475498,ME-VT0052
vt.uscongress.western.secondballot.1793,Fairhaven,Rutland,Vermont,7047,43.595701,-73.270598,ME-VT0066
vt.uscongress.western.secondballot.1793,Harwich,Rutland,Vermont,NA,43.3506285,-72.9826037,ME-VT0128
vt.uscongress.western.secondballot.1793,Hubbardton,Rutland,Vermont,NA,43.7073648,-73.1845482,ME-VT0091
vt.uscongress.western.secondballot.1793,Ira,Rutland,Vermont,NA,43.5345134,-73.0620512,ME-VT0094
vt.uscongress.western.secondballot.1793,Middletown,Rutland,Vermont,NA,43.4856255,-73.1181624,ME-VT0119
vt.uscongress.western.secondballot.1793,Mount Holly,Rutland,Vermont,NA,43.4474694,-72.8256382,ME-VT0127
vt.uscongress.western.secondballot.1793,Orwell,Rutland,Vermont,NA,43.8039502,-73.2978936,ME-VT0138
vt.uscongress.western.secondballot.1793,Pawlet,Rutland,Vermont,NA,43.3465552,-73.177286,ME-VT0140
vt.uscongress.western.secondballot.1793,Pittsford,Rutland,Vermont,NA,43.7067329,-73.0281647,ME-VT0145
vt.uscongress.western.secondballot.1793,Poultney,Rutland,Vermont,NA,43.5170325,-73.2362261,ME-VT0149
vt.uscongress.western.secondballot.1793,Rutland,Rutland,Vermont,7053,43.6096702,-72.9777884,ME-VT0162
vt.uscongress.western.secondballot.1793,Shrewsbury,Rutland,Vermont,NA,43.5089588,-72.8667686,ME-VT0176
vt.uscongress.western.secondballot.1793,Tinmouth,Rutland,Vermont,NA,43.448682,-73.0495501,ME-VT0195
vt.uscongress.western.secondballot.1793,Wallingford,Rutland,Vermont,NA,43.4717467,-72.9773692,ME-VT0207
vt.uscongress.western.secondballot.1793,Welles,Rutland,Vermont,NA,43.4172937,-73.2042744,ME-VT0215
vt.uscongress.western.secondballot.1793,West Haven,Rutland,Vermont,NA,43.6382658,-73.3826585,ME-VT0217
vt.uscongress3.1820,Addison,Addison,Vermont,NA,44.0886671,-73.302622,ME-VT0001
vt.uscongress3.1820,Bridport,Addison,Vermont,NA,43.9873736,-73.351164,ME-VT0026
vt.uscongress3.1820,Bristol,Addison,Vermont,NA,44.1333912,-73.0790076,ME-VT0027
vt.uscongress3.1820,Cornwall,Addison,Vermont,NA,43.960893,-73.2103951,ME-VT0049
vt.uscongress3.1820,Ferrisburgh,Addison,Vermont,NA,44.2056098,-73.2462341,ME-VT0069
vt.uscongress3.1820,Goshen,Addison,Vermont,NA,43.8601051,-72.9977534,ME-VT0074
vt.uscongress3.1820,Hancock,Addison,Vermont,NA,43.9261192,-72.8412292,ME-VT0084
vt.uscongress3.1820,Kingston,Addison,Vermont,NA,43.9855014,-72.8467412,ME-VT0078
vt.uscongress3.1820,Leicester,Addison,Vermont,NA,43.8667293,-73.1078914,ME-VT0103
vt.uscongress3.1820,Lincoln,Addison,Vermont,NA,44.1058928,-72.9970612,ME-VT0105
vt.uscongress3.1820,Middlebury,Addison,Vermont,7048,44.014153,-73.163784,ME-VT0117
vt.uscongress3.1820,Monkton,Addison,Vermont,NA,44.2200554,-73.1253991,ME-VT0121
vt.uscongress3.1820,New Haven,Addison,Vermont,NA,44.1243277,-73.1535713,ME-VT0129
vt.uscongress3.1820,Panton,Addison,Vermont,NA,44.1487891,-73.3409878,ME-VT0139
vt.uscongress3.1820,Salisbury,Addison,Vermont,NA,43.8964511,-73.0998363,ME-VT0168
vt.uscongress3.1820,Shoreham,Addison,Vermont,NA,43.8936708,-73.3159515,ME-VT0175
vt.uscongress3.1820,Starksboro,Addison,Vermont,NA,44.2272782,-73.0573427,ME-VT0184
vt.uscongress3.1820,Vergennes,Addison,Vermont,7059,44.1676604,-73.2553163,ME-VT0201
vt.uscongress3.1820,Warren,Addison,Vermont,NA,44.112005,-72.8559474,ME-VT0210
vt.uscongress3.1820,Weybridge,Addison,Vermont,NA,44.0498636,-73.2143577,ME-VT0223
vt.uscongress3.1820,Whiting,Addison,Vermont,NA,43.8639503,-73.2003929,ME-VT0225
vt.uscongress3.1820,Charlotte,Chittenden,Vermont,NA,44.3098476,-73.2609928,ME-VT0041
vt.uscongress3.1820,Hinesburgh,Chittenden,Vermont,NA,44.3292199,-73.110679,ME-VT0089
vt.uscongress3.1820,Huntingdon,Chittenden,Vermont,NA,44.3253512,-72.9873459,ME-VT0092
vt.uscongress3.1820,Richmond,Chittenden,Vermont,NA,44.4053135,-72.9924128,ME-VT0156
vt.uscongress3.1820,Saint George,Chittenden,Vermont,NA,44.3775898,-73.1253641,ME-VT0165
vt.uscongress3.1820,Shelburne,Chittenden,Vermont,NA,44.3806065,-73.227626,ME-VT0173
vt.uscongress3.1820,Benson,Rutland,Vermont,NA,43.7099497,-73.3001233,ME-VT0015
vt.uscongress3.1820,Brandon,Rutland,Vermont,NA,43.7981195,-73.0876119,ME-VT0023
vt.uscongress3.1820,Chittenden,Rutland,Vermont,NA,43.7271064,-72.9428417,ME-VT0044
vt.uscongress3.1820,Hubbardton,Rutland,Vermont,NA,43.7073648,-73.1845482,ME-VT0091
vt.uscongress3.1820,Orwell,Rutland,Vermont,NA,43.8039502,-73.2978936,ME-VT0138
vt.uscongress3.1820,Pittsfield,Rutland,Vermont,NA,43.7722884,-72.8128828,ME-VT0144
vt.uscongress3.1820,Pittsford,Rutland,Vermont,NA,43.7067329,-73.0281647,ME-VT0145
vt.uscongress3.1820,Sudbury,Rutland,Vermont,NA,43.7992291,-73.2045583,ME-VT0190
vt.uscongress3.1820,Duxbury,Washington,Vermont,NA,44.3270012,-72.7526175,ME-VT0059
vt.uscongress3.1820,Fayston,Washington,Vermont,NA,44.2074374,-72.8756638,ME-VT0068
vt.uscongress3.1820,Moretown,Washington,Vermont,NA,44.2508918,-72.7609496,ME-VT0124
vt.uscongress3.1820,Waitsfield,Washington,Vermont,NA,44.1926386,-72.7798479,ME-VT0205
vt.uscongress6.1820,Barnet,Caledonia,Vermont,NA,44.2968323,-72.0493779,ME-VT0010
vt.uscongress6.1820,Burke,Caledonia,Vermont,NA,44.618233,-71.9368346,ME-VT0032
vt.uscongress6.1820,Cabot,Caledonia,Vermont,NA,44.4014456,-72.3123248,ME-VT0034
vt.uscongress6.1820,Danville,Caledonia,Vermont,NA,44.4114954,-72.14009,ME-VT0053
vt.uscongress6.1820,Groton,Caledonia,Vermont,NA,44.2161706,-72.20180511,ME-VT0080
vt.uscongress6.1820,Hardwick,Caledonia,Vermont,NA,44.5416243,-72.3486803,ME-VT0085
vt.uscongress6.1820,Kirby,Caledonia,Vermont,NA,44.4989626,-71.9069249,ME-VT0101
vt.uscongress6.1820,Lyndon,Caledonia,Vermont,NA,44.5453088,-72.0000723,ME-VT0110
vt.uscongress6.1820,Peacham,Caledonia,Vermont,NA,44.3286166,-72.1704048,ME-VT0141
vt.uscongress6.1820,Ryegate,Caledonia,Vermont,NA,44.2387639,-72.1160864,ME-VT0163
vt.uscongress6.1820,Saint Johnsbury,Caledonia,Vermont,NA,44.4192627,-72.0151183,ME-VT0166
vt.uscongress6.1820,Sheffield,Caledonia,Vermont,NA,44.6019975,-72.1139881,ME-VT0172
vt.uscongress6.1820,Sutton,Caledonia,Vermont,NA,44.6331085,-72.0256525,ME-VT0192
vt.uscongress6.1820,Walden,Caledonia,Vermont,NA,44.4497781,-72.2231563,ME-VT0206
vt.uscongress6.1820,Waterford,Caledonia,Vermont,NA,44.3729726,-71.9508384,ME-VT0213
vt.uscongress6.1820,Wheelock,Caledonia,Vermont,NA,44.5882056,-72.088507,ME-VT0224
vt.uscongress6.1820,Woodbury,Caledonia,Vermont,NA,44.4408888,-72.4164957,ME-VT0234
vt.uscongress6.1820,Brunswick,Essex,Vermont,NA,44.7281752,-71.6749551,ME-VT0031
vt.uscongress6.1820,Canaan,Essex,Vermont,NA,44.9964934,-71.5383736,ME-VT0037
vt.uscongress6.1820,Concord,Essex,Vermont,NA,44.4209235,-71.8369768,ME-VT0047
vt.uscongress6.1820,Granby,Essex,Vermont,NA,44.5706106,-71.758702,ME-VT0076
vt.uscongress6.1820,Guildhall,Essex,Vermont,NA,44.56919224,-71.5836525,ME-VT0081
vt.uscongress6.1820,Lemington,Essex,Vermont,NA,44.9236819,-71.5553619,ME-VT0104
vt.uscongress6.1820,Lunenburgh,Essex,Vermont,NA,44.4631136,-71.6820321,ME-VT0109
vt.uscongress6.1820,Maidstone,Essex,Vermont,NA,44.6486636,-71.5720307,ME-VT0111
vt.uscongress6.1820,Minehead,Essex,Vermont,NA,44.7538175,-71.6324096,ME-VT0019
vt.uscongress6.1820,Newark,Essex,Vermont,NA,44.7019193,-71.9227434,ME-VT0130
vt.uscongress6.1820,Bradford,Orange,Vermont,NA,43.9925666,-72.1289793,ME-VT0021
vt.uscongress6.1820,Brookfield,Orange,Vermont,NA,44.0422861,-72.6034385,ME-VT0028
vt.uscongress6.1820,Chelsea,Orange,Vermont,NA,43.989788,-72.4475994,ME-VT0042
vt.uscongress6.1820,Corinth,Orange,Vermont,NA,44.0275697,-72.2797442,ME-VT0048
vt.uscongress6.1820,Newbury,Orange,Vermont,NA,44.08561219,-72.07580566,ME-VT0131
vt.uscongress6.1820,Orange,Orange,Vermont,NA,44.148376,-72.4030806,ME-VT0137
vt.uscongress6.1820,Roxbury,Orange,Vermont,NA,44.0939388,-72.7329823,ME-VT0159
vt.uscongress6.1820,Topsham,Orange,Vermont,NA,44.1281193,-72.2550956,ME-VT0196
vt.uscongress6.1820,Washington,Orange,Vermont,NA,44.105619,-72.432601,ME-VT0211
vt.uscongress6.1820,Williamstown,Orange,Vermont,NA,44.1217292,-72.5414937,ME-VT0227
vt.uscongress6.1820,Barre,Washington,Vermont,7041,44.1991117,-72.5079932,ME-VT0011
vt.uscongress6.1820,Berlin,Washington,Vermont,NA,44.2152614,-72.5861615,ME-VT0017
vt.uscongress6.1820,Calais,Washington,Vermont,NA,44.363296,-72.4663426,ME-VT0035
vt.uscongress6.1820,Marshfield,Washington,Vermont,NA,44.3508405,-72.3539905,ME-VT0115
vt.uscongress6.1820,Montpelier,Washington,Vermont,7049,44.2664485,-72.5715237,ME-VT0123
vt.uscongress6.1820,Northfield,Washington,Vermont,7051,44.15117264,-72.65649414,ME-VT0135
vt.uscongress6.1820,Plainfield,Washington,Vermont,NA,44.2781151,-72.4264926,ME-VT0146
vt.uscongress1.1820,Arlington,Bennington,Vermont,NA,43.0747996,-73.1539954,ME-VT0005
vt.uscongress1.1820,Bennington,Bennington,Vermont,7043,42.878414,-73.190562,ME-VT0014
vt.uscongress1.1820,Dorset,Bennington,Vermont,NA,43.2548074,-73.0987801,ME-VT0056
vt.uscongress1.1820,Landgrove,Bennington,Vermont,NA,43.2624457,-72.8548986,ME-VT0102
vt.uscongress1.1820,Manchester,Bennington,Vermont,NA,43.1636875,-73.0723268,ME-VT0112
vt.uscongress1.1820,Peru,Bennington,Vermont,NA,43.2297974,-72.8978781,ME-VT0142
vt.uscongress1.1820,Pownal,Bennington,Vermont,NA,42.76465819,-73.24001312,ME-VT0150
vt.uscongress1.1820,Readsborough,Bennington,Vermont,NA,42.7718758,-72.9470426,ME-VT0154
vt.uscongress1.1820,Reupert,Bennington,Vermont,NA,43.2597979,-73.2228853,ME-VT0161
vt.uscongress1.1820,Sandgate,Bennington,Vermont,NA,43.1477916,-73.1994243,ME-VT0169
vt.uscongress1.1820,Shaftsbury,Bennington,Vermont,NA,42.95315594,-73.20808411,ME-VT0170
vt.uscongress1.1820,Stamford,Bennington,Vermont,NA,42.7561535,-73.0679253,ME-VT0182
vt.uscongress1.1820,Sunderland,Bennington,Vermont,NA,43.1113938,-73.1180595,ME-VT0191
vt.uscongress1.1820,Winhall,Bennington,Vermont,NA,43.1558097,-72.9133169,ME-VT0232
vt.uscongress1.1820,Woodford,Bennington,Vermont,NA,42.8803576,-73.0795486,ME-VT0235
vt.uscongress1.1820,Castleton,Rutland,Vermont,NA,43.6106223,-73.179832,ME-VT0038
vt.uscongress1.1820,Clarendon,Rutland,Vermont,NA,43.5478671,-72.9696779,ME-VT0045
vt.uscongress1.1820,Danby,Rutland,Vermont,NA,43.3548341,-73.0475498,ME-VT0052
vt.uscongress1.1820,Fairhaven,Rutland,Vermont,7047,43.595701,-73.270598,ME-VT0066
vt.uscongress1.1820,Ira,Rutland,Vermont,NA,43.5345134,-73.0620512,ME-VT0094
vt.uscongress1.1820,Middletown,Rutland,Vermont,NA,43.4856255,-73.1181624,ME-VT0119
vt.uscongress1.1820,Mount Holly,Rutland,Vermont,NA,43.4474694,-72.8256382,ME-VT0127
vt.uscongress1.1820,Mount Tabor,Rutland,Vermont,NA,43.3506285,-72.9826037,ME-VT0128
vt.uscongress1.1820,Parkerstown,Rutland,Vermont,NA,43.6517361,-72.9275698,ME-VT0116
vt.uscongress1.1820,Pawlet,Rutland,Vermont,NA,43.3465552,-73.177286,ME-VT0140
vt.uscongress1.1820,Poultney,Rutland,Vermont,NA,43.5170325,-73.2362261,ME-VT0149
vt.uscongress1.1820,Rutland,Rutland,Vermont,7053,43.6096702,-72.9777884,ME-VT0162
vt.uscongress1.1820,Sherburne,Rutland,Vermont,NA,43.6775677,-72.7798247,ME-VT0100
vt.uscongress1.1820,Shrewsbury,Rutland,Vermont,NA,43.5089588,-72.8667686,ME-VT0176
vt.uscongress1.1820,Tinmouth,Rutland,Vermont,NA,43.448682,-73.0495501,ME-VT0195
vt.uscongress1.1820,Wallingford,Rutland,Vermont,NA,43.4717467,-72.9773692,ME-VT0207
vt.uscongress1.1820,Wells,Rutland,Vermont,NA,43.4172937,-73.2042744,ME-VT0215
vt.uscongress5.1820,Bolton,Chittenden,Vermont,NA,44.3726476,-72.8787625,ME-VT0020
vt.uscongress5.1820,Burlington,Chittenden,Vermont,7045,44.4919905,-73.2393625,ME-VT0033
vt.uscongress5.1820,Colchester,Chittenden,Vermont,8517,44.5364,-73.20892,ME-VT0046
vt.uscongress5.1820,Essex,Chittenden,Vermont,8518,44.511,-73.0582,ME-VT0063
vt.uscongress5.1820,Jericho,Chittenden,Vermont,NA,44.5039395,-72.9976266,ME-VT0098
vt.uscongress5.1820,Mansfield,Chittenden,Vermont,NA,44.52245787,-72.8730011,ME-VT0113
vt.uscongress5.1820,Milton,Chittenden,Vermont,NA,44.6397701,-73.1104112,ME-VT0120
vt.uscongress5.1820,Underhill,Chittenden,Vermont,NA,44.5258842,-72.9451267,ME-VT0200
vt.uscongress5.1820,Westford,Chittenden,Vermont,NA,44.5983349,-72.9977003,ME-VT0219
vt.uscongress5.1820,Williston,Chittenden,Vermont,NA,44.4454432,-73.099194,ME-VT0228
vt.uscongress5.1820,Bakersfield,Franklin,Vermont,NA,44.781992700000004,-72.8029085,ME-VT0007
vt.uscongress5.1820,Belvidere,Franklin,Vermont,NA,44.7492093,-72.6986673,ME-VT0013
vt.uscongress5.1820,Berkshire,Franklin,Vermont,NA,44.9717124,-72.7754147,ME-VT0016
vt.uscongress5.1820,Cambridge,Franklin,Vermont,NA,44.6447724,-72.8762772,ME-VT0036
vt.uscongress5.1820,Enosburgh,Franklin,Vermont,NA,44.8689592,-72.7310458,ME-VT0062
vt.uscongress5.1820,Fairfax,Franklin,Vermont,NA,44.6654963,-73.01032,ME-VT0064
vt.uscongress5.1820,Fairfield,Franklin,Vermont,NA,44.8019921,-72.9456936,ME-VT0065
vt.uscongress5.1820,Fletcher,Franklin,Vermont,NA,44.6752213,-72.9238412,ME-VT0070
vt.uscongress5.1820,Franklin,Franklin,Vermont,NA,44.9812585,-72.9165547,ME-VT0071
vt.uscongress5.1820,Georgia,Franklin,Vermont,NA,44.7392004,-73.1301205,ME-VT0072
vt.uscongress5.1820,Highgate,Franklin,Vermont,NA,44.9565227,-73.0511203,ME-VT0088
vt.uscongress5.1820,Johnson,Franklin,Vermont,NA,44.6356063,-72.6803979,ME-VT0099
vt.uscongress5.1820,Montgomery,Franklin,Vermont,NA,44.9025466,-72.63818,ME-VT0122
vt.uscongress5.1820,Richford,Franklin,Vermont,NA,44.9969955,-72.6713018,ME-VT0155
vt.uscongress5.1820,Saint Albans,Franklin,Vermont,NA,44.8107132,-73.0835582,ME-VT0164
vt.uscongress5.1820,Sheldon,Franklin,Vermont,NA,44.8817124,-72.9429124,ME-VT0174
vt.uscongress5.1820,Sterling,Franklin,Vermont,NA,44.53445089,-72.69962311,ME-VT0185
vt.uscongress5.1820,Swanton,Franklin,Vermont,7058,44.91810226,-73.12429047,ME-VT0193
vt.uscongress5.1820,Alburgh,Grande Isle,Vermont,NA,44.9750541,-73.3002239,ME-VT0003
vt.uscongress5.1820,Grande Isle,Grande Isle,Vermont,NA,44.7225436,-73.2923538,ME-VT0077
vt.uscongress5.1820,North Hero,Grande Isle,Vermont,NA,44.8311432,-73.273505,ME-VT0134
vt.uscongress5.1820,South Hero,Grande Isle,Vermont,NA,44.6453228,-73.3023532,ME-VT0179
vt.uscongress5.1820,Vineyard,Grande Isle,Vermont,NA,44.8769853,-73.3387437,ME-VT0096
vt.uscongress5.1820,Albany,Orleans,Vermont,NA,44.7309405,-72.3798076,ME-VT0002
vt.uscongress5.1820,Barton,Orleans,Vermont,NA,44.7480805,-72.176258,ME-VT0012
vt.uscongress5.1820,Brownington,Orleans,Vermont,NA,44.8266615,-72.1348097,ME-VT0030
vt.uscongress5.1820,Coventry,Orleans,Vermont,NA,44.867617,-72.2616067,ME-VT0050
vt.uscongress5.1820,Craftsbury,Orleans,Vermont,NA,44.6367179,-72.3726071,ME-VT0051
vt.uscongress5.1820,Derby,Orleans,Vermont,NA,44.9639953,-72.1345069,ME-VT0054
vt.uscongress5.1820,Eden,Orleans,Vermont,NA,44.7072718,-72.5456691,ME-VT0060
vt.uscongress5.1820,Elmore,Orleans,Vermont,NA,44.5274632,-72.5187486,ME-VT0061
vt.uscongress5.1820,Glover,Orleans,Vermont,NA,44.7069038,-72.1869766,ME-VT0073
vt.uscongress5.1820,Greensborough,Orleans,Vermont,NA,44.6107836,-72.3046033,ME-VT0079
vt.uscongress5.1820,Holland,Orleans,Vermont,NA,44.9684078,-72.0027446,ME-VT0090
vt.uscongress5.1820,Hyde Park,Orleans,Vermont,NA,44.5939318,-72.6165192,ME-VT0093
vt.uscongress5.1820,Irasburgh,Orleans,Vermont,NA,44.8033816,-72.2795489,ME-VT0095
vt.uscongress5.1820,Kellyvale,Orleans,Vermont,NA,44.7992084,-72.4476024,ME-VT0107
vt.uscongress5.1820,Morgan,Orleans,Vermont,NA,44.892455,-71.9747169,ME-VT0125
vt.uscongress5.1820,Morristown,Orleans,Vermont,NA,44.5572744,-72.6237275,ME-VT0126
vt.uscongress5.1820,Navy,Orleans,Vermont,NA,44.8443616,-72.0330896,ME-VT0040
vt.uscongress5.1820,Newport,Orleans,Vermont,7050,44.9417038,-72.2194775,ME-VT0133
vt.uscongress5.1820,Troy,Orleans,Vermont,NA,44.9042338,-72.4058438,ME-VT0198
vt.uscongress5.1820,Westfield,Orleans,Vermont,NA,44.8894911,-72.4284431,ME-VT0218
vt.uscongress5.1820,Wolcott,Orleans,Vermont,NA,44.5464417,-72.4584429,ME-VT0233
vt.uscongress5.1820,Middlesex,Washington,Vermont,NA,44.2928358,-72.6792807,ME-VT0118
vt.uscongress5.1820,Stow,Washington,Vermont,NA,44.4654332,-72.6874023,ME-VT0187
vt.uscongress5.1820,Waterbury,Washington,Vermont,7060,44.33962,-72.750363,ME-VT0212
vt.uscongress4.1820,Braintree,Orange,Vermont,NA,43.9621778,-72.7046487,ME-VT0022
vt.uscongress4.1820,Fairlee,Orange,Vermont,NA,43.9053567,-72.1518675,ME-VT0067
vt.uscongress4.1820,Randolph,Orange,Vermont,NA,43.9247446,-72.6656948,ME-VT0152
vt.uscongress4.1820,Strafford,Orange,Vermont,NA,43.8664568,-72.3778728,ME-VT0188
vt.uscongress4.1820,Thetford,Orange,Vermont,NA,43.8250578,-72.2434689,ME-VT0194
vt.uscongress4.1820,Turnbridge,Orange,Vermont,NA,43.9198761,-72.4782827,ME-VT0199
vt.uscongress4.1820,Vershire,Orange,Vermont,NA,43.9729649,-72.3395077,ME-VT0203
vt.uscongress4.1820,Barnard,Windsor,Vermont,NA,43.728679,-72.6189876,ME-VT0009
vt.uscongress4.1820,Bethel,Windsor,Vermont,NA,43.8332779,-72.633995,ME-VT0018
vt.uscongress4.1820,Bridgewater,Windsor,Vermont,NA,43.588125,-72.6250967,ME-VT0025
vt.uscongress4.1820,Cavendish,Windsor,Vermont,NA,43.39120261,-72.60005951,ME-VT0039
vt.uscongress4.1820,Hartford,Windsor,Vermont,8519,43.66062,-72.3388,ME-VT0086
vt.uscongress4.1820,Hartland,Windsor,Vermont,NA,43.540636,-72.3989314,ME-VT0087
vt.uscongress4.1820,Ludlow,Windsor,Vermont,NA,43.3959056,-72.7006518,ME-VT0108
vt.uscongress4.1820,Norwich,Windsor,Vermont,NA,43.7153482,-72.307869,ME-VT0136
vt.uscongress4.1820,Plymouth,Windsor,Vermont,NA,43.5354332,-72.7219581,ME-VT0147
vt.uscongress4.1820,Pomfret,Windsor,Vermont,NA,43.7270391,-72.4801821,ME-VT0148
vt.uscongress4.1820,Reading,Windsor,Vermont,NA,43.4893362,-72.5914616,ME-VT0153
vt.uscongress4.1820,Rochester,Windsor,Vermont,NA,43.8745646,-72.808018,ME-VT0157
vt.uscongress4.1820,Royalton,Windsor,Vermont,NA,43.8176574,-72.5427505,ME-VT0160
vt.uscongress4.1820,Sharon,Windsor,Vermont,NA,43.7852344,-72.4541709,ME-VT0171
vt.uscongress4.1820,Stockbridge,Windsor,Vermont,NA,43.7813195,-72.7885437,ME-VT0186
vt.uscongress4.1820,Windsor,Windsor,Vermont,7061,43.477535,-72.401154,ME-VT0231
vt.uscongress4.1820,Woodstock,Windsor,Vermont,NA,43.6242442,-72.5185112,ME-VT0236
vt.uscongress2.1820,Athens,Windham,Vermont,NA,43.1330826,-72.5679089,ME-VT0006
vt.uscongress2.1820,Brattleborough,Windham,Vermont,7044,42.856099,-72.564186,ME-VT0024
vt.uscongress2.1820,Dover,Windham,Vermont,NA,42.95742758,-72.87574768,ME-VT0057
vt.uscongress2.1820,Dummerston,Windham,Vermont,NA,42.9215017,-72.5838146,ME-VT0058
vt.uscongress2.1820,Grafton,Windham,Vermont,NA,43.1716817,-72.6064633,ME-VT0075
vt.uscongress2.1820,Guilford,Windham,Vermont,NA,42.8170235,-72.575487,ME-VT0082
vt.uscongress2.1820,Halifax,Windham,Vermont,NA,42.7698048,-72.7453716,ME-VT0083
vt.uscongress2.1820,Jamaica,Windham,Vermont,NA,43.1003556,-72.7784296,ME-VT0097
vt.uscongress2.1820,Londonderry,Windham,Vermont,NA,43.2264643,-72.8064866,ME-VT0106
vt.uscongress2.1820,Marlborough,Windham,Vermont,NA,42.859526,-72.7259271,ME-VT0114
vt.uscongress2.1820,New Fane,Windham,Vermont,NA,42.9856736,-72.6559313,ME-VT0132
vt.uscongress2.1820,Putney,Windham,Vermont,NA,42.975268,-72.5217237,ME-VT0151
vt.uscongress2.1820,Rockingham,Windham,Vermont,NA,43.1876028,-72.4889288,ME-VT0158
vt.uscongress2.1820,Somerset,Windham,Vermont,NA,42.9502858,-72.9862472,ME-VT0178
vt.uscongress2.1820,Stratton,Windham,Vermont,NA,43.0428562,-72.9109334,ME-VT0189
vt.uscongress2.1820,Townsend,Windham,Vermont,NA,43.0472267,-72.6678428,ME-VT0197
vt.uscongress2.1820,Vernon,Windham,Vermont,NA,42.7620271,-72.5134223,ME-VT0202
vt.uscongress2.1820,Wardsborough,Windham,Vermont,NA,43.0409512,-72.7897975,ME-VT0209
vt.uscongress2.1820,Westminster,Windham,Vermont,NA,43.0678307,-72.4587404,ME-VT0220
vt.uscongress2.1820,Whitingham,Windham,Vermont,NA,42.7892488,-72.885098,ME-VT0226
vt.uscongress2.1820,Wilmington,Windham,Vermont,NA,42.8683889,-72.8714468,ME-VT0229
vt.uscongress2.1820,Windham,Windham,Vermont,NA,43.1734338,-72.7234481,ME-VT0230
vt.uscongress2.1820,Andover,Windsor,Vermont,NA,43.2773586,-72.6965278,ME-VT0004
vt.uscongress2.1820,Baltimore,Windsor,Vermont,NA,43.3603629,-72.5724379,ME-VT0008
vt.uscongress2.1820,Chester,Windsor,Vermont,NA,43.2628476,-72.5951082,ME-VT0043
vt.uscongress2.1820,Springfield,Windsor,Vermont,7055,43.294056,-72.481704,ME-VT0180
vt.uscongress2.1820,Weathersfield,Windsor,Vermont,NA,43.3921862,-72.4494848,ME-VT0214
vt.governor.1820,Addison,Addison,Vermont,NA,44.0886671,-73.302622,ME-VT0001
vt.council.1801,Peacham,Caledonia,Vermont,NA,44.3286166,-72.1704048,ME-VT0141
vt.council.1801,Brattleboro,Windham,Vermont,7044,42.856099,-72.564186,ME-VT0024
vt.ltgovernor.1801,Vergennes,Addison,Vermont,7059,44.1676604,-73.2553163,ME-VT0201
vt.ltgovernor.1801,Peacham,Caledonia,Vermont,NA,44.3286166,-72.1704048,ME-VT0141
vt.ltgovernor.1801,Barton,Orleans,Vermont,NA,44.7480805,-72.176258,ME-VT0012
vt.ltgovernor.1801,Brattleboro,Windham,Vermont,7044,42.856099,-72.564186,ME-VT0024
vt.ltgovernor.1801,Whitingham,Windham,Vermont,NA,42.7892488,-72.885098,ME-VT0226
vt.treasurer.1801,Vergennes,Addison,Vermont,7059,44.1676604,-73.2553163,ME-VT0201
vt.treasurer.1801,Peacham,Caledonia,Vermont,NA,44.3286166,-72.1704048,ME-VT0141
vt.treasurer.1801,Barton,Orleans,Vermont,NA,44.7480805,-72.176258,ME-VT0012
vt.treasurer.1801,Brattleboro,Windham,Vermont,7044,42.856099,-72.564186,ME-VT0024
vt.treasurer.1801,Whitingham,Windham,Vermont,NA,42.7892488,-72.885098,ME-VT0226
vt.governor.1801,Addison,Addison,Vermont,NA,44.0886671,-73.302622,ME-VT0001
vt.governor.1801,Bridport,Addison,Vermont,NA,43.9873736,-73.351164,ME-VT0026
vt.governor.1801,Bristol,Addison,Vermont,NA,44.1333912,-73.0790076,ME-VT0027
vt.governor.1801,Ferrisburgh,Addison,Vermont,NA,44.2056098,-73.2462341,ME-VT0069
vt.governor.1801,Hancock,Addison,Vermont,NA,43.9261192,-72.8412292,ME-VT0084
vt.governor.1801,Monkton,Addison,Vermont,NA,44.2200554,-73.1253991,ME-VT0121
vt.governor.1801,Newhaven,Addison,Vermont,NA,44.1243277,-73.1535713,ME-VT0129
vt.governor.1801,Panton,Addison,Vermont,NA,44.1487891,-73.3409878,ME-VT0139
vt.governor.1801,Shoreham,Addison,Vermont,NA,43.8936708,-73.3159515,ME-VT0175
vt.governor.1801,Vergennes,Addison,Vermont,7059,44.1676604,-73.2553163,ME-VT0201
vt.governor.1801,Warren,Addison,Vermont,NA,44.112005,-72.8559474,ME-VT0210
vt.governor.1801,Bennington,Bennington,Vermont,7043,42.878414,-73.190562,ME-VT0014
vt.governor.1801,Pownal,Bennington,Vermont,NA,42.76465819,-73.24001312,ME-VT0150
vt.governor.1801,Readsboro,Bennington,Vermont,NA,42.7718758,-72.9470426,ME-VT0154
vt.governor.1801,Reupert,Bennington,Vermont,NA,43.2597979,-73.2228853,ME-VT0161
vt.governor.1801,Sandgate,Bennington,Vermont,NA,43.1477916,-73.1994243,ME-VT0169
vt.governor.1801,Shaftsbury,Bennington,Vermont,NA,42.95315594,-73.20808411,ME-VT0170
vt.governor.1801,Stamford,Bennington,Vermont,NA,42.7561535,-73.0679253,ME-VT0182
vt.governor.1801,Woodford,Bennington,Vermont,NA,42.8803576,-73.0795486,ME-VT0235
vt.governor.1801,Burke,Caledonia,Vermont,NA,44.618233,-71.9368346,ME-VT0032
vt.governor.1801,Cabot,Caledonia,Vermont,NA,44.4014456,-72.3123248,ME-VT0034
vt.governor.1801,Calais,Caledonia,Vermont,NA,44.363296,-72.4663426,ME-VT0035
vt.governor.1801,Danville,Caledonia,Vermont,NA,44.4114954,-72.14009,ME-VT0053
vt.governor.1801,Hardwick,Caledonia,Vermont,NA,44.5416243,-72.3486803,ME-VT0085
vt.governor.1801,Marshfield,Caledonia,Vermont,NA,44.3508405,-72.3539905,ME-VT0115
vt.governor.1801,Montpelier,Caledonia,Vermont,7049,44.2664485,-72.5715237,ME-VT0123
vt.governor.1801,Peacham,Caledonia,Vermont,NA,44.3286166,-72.1704048,ME-VT0141
vt.governor.1801,Plainfield,Caledonia,Vermont,NA,44.2781151,-72.4264926,ME-VT0146
vt.governor.1801,Saint Johnsbury,Caledonia,Vermont,NA,44.4192627,-72.0151183,ME-VT0166
vt.governor.1801,Sheffield,Caledonia,Vermont,NA,44.6019975,-72.1139881,ME-VT0172
vt.governor.1801,Walden,Caledonia,Vermont,NA,44.4497781,-72.2231563,ME-VT0206
vt.governor.1801,Wheelock,Caledonia,Vermont,NA,44.5882056,-72.088507,ME-VT0224
vt.governor.1801,Burlington,Chittenden,Vermont,7045,44.4919905,-73.2393625,ME-VT0033
vt.governor.1801,Colchester,Chittenden,Vermont,8517,44.5364,-73.20892,ME-VT0046
vt.governor.1801,Essex,Chittenden,Vermont,8518,44.511,-73.0582,ME-VT0063
vt.governor.1801,Jericho,Chittenden,Vermont,NA,44.5039395,-72.9976266,ME-VT0098
vt.governor.1801,Milton,Chittenden,Vermont,NA,44.6397701,-73.1104112,ME-VT0120
vt.governor.1801,Shelbourne,Chittenden,Vermont,NA,44.3806065,-73.227626,ME-VT0173
vt.governor.1801,Underhill,Chittenden,Vermont,NA,44.5258842,-72.9451267,ME-VT0200
vt.governor.1801,Guildhall,Essex,Vermont,NA,44.56919224,-71.5836525,ME-VT0081
vt.governor.1801,Fairfax,Franklin,Vermont,NA,44.6654963,-73.01032,ME-VT0064
vt.governor.1801,Fairfield,Franklin,Vermont,NA,44.8019921,-72.9456936,ME-VT0065
vt.governor.1801,Highgate,Franklin,Vermont,NA,44.9565227,-73.0511203,ME-VT0088
vt.governor.1801,Richford,Franklin,Vermont,NA,44.9969955,-72.6713018,ME-VT0155
vt.governor.1801,Bradford,Orange,Vermont,NA,43.9925666,-72.1289793,ME-VT0021
vt.governor.1801,Braintree,Orange,Vermont,NA,43.9621778,-72.7046487,ME-VT0022
vt.governor.1801,Fairlee,Orange,Vermont,NA,43.9053567,-72.1518675,ME-VT0067
vt.governor.1801,Newbury,Orange,Vermont,NA,44.08561219,-72.07580566,ME-VT0131
vt.governor.1801,Northfield,Orange,Vermont,7051,44.15117264,-72.65649414,ME-VT0135
vt.governor.1801,Randolph,Orange,Vermont,NA,43.9247446,-72.6656948,ME-VT0152
vt.governor.1801,Roxbury,Orange,Vermont,NA,44.0939388,-72.7329823,ME-VT0159
vt.governor.1801,Turnbridge,Orange,Vermont,NA,43.9198761,-72.4782827,ME-VT0199
vt.governor.1801,Washington,Orange,Vermont,NA,44.105619,-72.432601,ME-VT0211
vt.governor.1801,Barton,Orleans,Vermont,NA,44.7480805,-72.176258,ME-VT0012
vt.governor.1801,Browington,Orleans,Vermont,NA,44.8266615,-72.1348097,ME-VT0030
vt.governor.1801,Duncansboro,Orleans,Vermont,7050,44.9417038,-72.2194775,ME-VT0133
vt.governor.1801,Elmore,Orleans,Vermont,NA,44.5274632,-72.5187486,ME-VT0061
vt.governor.1801,Benson,Rutland,Vermont,NA,43.7099497,-73.3001233,ME-VT0015
vt.governor.1801,Claredon,Rutland,Vermont,NA,43.5478671,-72.9696779,ME-VT0045
vt.governor.1801,Harwich,Rutland,Vermont,NA,43.3506285,-72.9826037,ME-VT0128
vt.governor.1801,Middletown,Rutland,Vermont,NA,43.4856255,-73.1181624,ME-VT0119
vt.governor.1801,Orwell,Rutland,Vermont,NA,43.8039502,-73.2978936,ME-VT0138
vt.governor.1801,Pittsford,Rutland,Vermont,NA,43.7067329,-73.0281647,ME-VT0145
vt.governor.1801,Rutland,Rutland,Vermont,7053,43.6096702,-72.9777884,ME-VT0162
vt.governor.1801,Wells,Rutland,Vermont,NA,43.4172937,-73.2042744,ME-VT0215
vt.governor.1801,Brattleboro,Windham,Vermont,7044,42.856099,-72.564186,ME-VT0024
vt.governor.1801,Dummerston,Windham,Vermont,NA,42.9215017,-72.5838146,ME-VT0058
vt.governor.1801,Halifax,Windham,Vermont,NA,42.7698048,-72.7453716,ME-VT0083
vt.governor.1801,Hinsdale,Windham,Vermont,NA,42.7620271,-72.5134223,ME-VT0202
vt.governor.1801,Jamica,Windham,Vermont,NA,43.1003556,-72.7784296,ME-VT0097
vt.governor.1801,Londonderry,Windham,Vermont,NA,43.2264643,-72.8064866,ME-VT0106
vt.governor.1801,Marlborough,Windham,Vermont,NA,42.859526,-72.7259271,ME-VT0114
vt.governor.1801,New Fane,Windham,Vermont,NA,42.9856736,-72.6559313,ME-VT0132
vt.governor.1801,Putney,Windham,Vermont,NA,42.975268,-72.5217237,ME-VT0151
vt.governor.1801,Rockingham,Windham,Vermont,NA,43.1876028,-72.4889288,ME-VT0158
vt.governor.1801,Somerset,Windham,Vermont,NA,42.9502858,-72.9862472,ME-VT0178
vt.governor.1801,Stratton,Windham,Vermont,NA,43.0428562,-72.9109334,ME-VT0189
vt.governor.1801,Wardsboro,Windham,Vermont,NA,43.0409512,-72.7897975,ME-VT0209
vt.governor.1801,Westminster,Windham,Vermont,NA,43.0678307,-72.4587404,ME-VT0220
vt.governor.1801,Whitingham,Windham,Vermont,NA,42.7892488,-72.885098,ME-VT0226
vt.governor.1801,Wilmington,Windham,Vermont,NA,42.8683889,-72.8714468,ME-VT0229
vt.governor.1801,Baltimore,Windsor,Vermont,NA,43.3603629,-72.5724379,ME-VT0008
vt.governor.1801,Barnard,Windsor,Vermont,NA,43.728679,-72.6189876,ME-VT0009
vt.governor.1801,Bethel,Windsor,Vermont,NA,43.8332779,-72.633995,ME-VT0018
vt.governor.1801,Cavendish,Windsor,Vermont,NA,43.39120261,-72.60005951,ME-VT0039
vt.governor.1801,Chester,Windsor,Vermont,NA,43.2628476,-72.5951082,ME-VT0043
vt.governor.1801,Hartland,Windsor,Vermont,NA,43.540636,-72.3989314,ME-VT0087
vt.governor.1801,Hartford,Windsor,Vermont,8519,43.66062,-72.3388,ME-VT0086
vt.governor.1801,Ludlow,Windsor,Vermont,NA,43.3959056,-72.7006518,ME-VT0108
vt.governor.1801,Pomfret,Windsor,Vermont,NA,43.7270391,-72.4801821,ME-VT0148
vt.governor.1801,Royalton,Windsor,Vermont,NA,43.8176574,-72.5427505,ME-VT0160
vt.governor.1801,Sharon,Windsor,Vermont,NA,43.7852344,-72.4541709,ME-VT0171
vt.governor.1801,Springfield,Windsor,Vermont,7055,43.294056,-72.481704,ME-VT0180
vt.governor.1801,Windsor,Windsor,Vermont,7061,43.477535,-72.401154,ME-VT0231
vt.staterepresentative.windsor.1802,Windsor,Windsor,Vermont,7061,43.477535,-72.401154,ME-VT0231
vt.treasurer.1802,Peacham,Caledonia,Vermont,NA,44.3286166,-72.1704048,ME-VT0141
vt.treasurer.1802,Burlington,Chittenden,Vermont,7045,44.4919905,-73.2393625,ME-VT0033
vt.uscongress.southwest.1802,Bennington,Bennington,Vermont,7043,42.878414,-73.190562,ME-VT0014
vt.uscongress.southwest.1802,Pownal,Bennington,Vermont,NA,42.76465819,-73.24001312,ME-VT0150
vt.uscongress.southwest.1802,Readsboro,Bennington,Vermont,NA,42.7718758,-72.9470426,ME-VT0154
vt.uscongress.southwest.1802,Shaftsbury,Bennington,Vermont,NA,42.95315594,-73.20808411,ME-VT0170
vt.uscongress.southwest.1802,Stamford,Bennington,Vermont,NA,42.7561535,-73.0679253,ME-VT0182
vt.uscongress.southwest.1802,Winhall,Bennington,Vermont,NA,43.1558097,-72.9133169,ME-VT0232
vt.uscongress.southwest.1802,Woodford,Bennington,Vermont,NA,42.8803576,-73.0795486,ME-VT0235
vt.uscongress.southwest.1802,Benson,Rutland,Vermont,NA,43.7099497,-73.3001233,ME-VT0015
vt.uscongress.southwest.1802,Brandon,Rutland,Vermont,NA,43.7981195,-73.0876119,ME-VT0023
vt.uscongress.southwest.1802,Castleton,Rutland,Vermont,NA,43.6106223,-73.179832,ME-VT0038
vt.uscongress.southwest.1802,Chittenden,Rutland,Vermont,NA,43.7271064,-72.9428417,ME-VT0044
vt.uscongress.southwest.1802,Claredon,Rutland,Vermont,NA,43.5478671,-72.9696779,ME-VT0045
vt.uscongress.southwest.1802,Danby,Rutland,Vermont,NA,43.3548341,-73.0475498,ME-VT0052
vt.uscongress.southwest.1802,Fairhaven,Rutland,Vermont,7047,43.595701,-73.270598,ME-VT0066
vt.uscongress.southwest.1802,Harwich,Rutland,Vermont,NA,43.3506285,-72.9826037,ME-VT0128
vt.uscongress.southwest.1802,Hubbardton,Rutland,Vermont,NA,43.7073648,-73.1845482,ME-VT0091
vt.uscongress.southwest.1802,Ira,Rutland,Vermont,NA,43.5345134,-73.0620512,ME-VT0094
vt.uscongress.southwest.1802,Middletown,Rutland,Vermont,NA,43.4856255,-73.1181624,ME-VT0119
vt.uscongress.southwest.1802,Mount Holly,Rutland,Vermont,NA,43.4474694,-72.8256382,ME-VT0127
vt.uscongress.southwest.1802,Orwell,Rutland,Vermont,NA,43.8039502,-73.2978936,ME-VT0138
vt.uscongress.southwest.1802,Pawlet,Rutland,Vermont,NA,43.3465552,-73.177286,ME-VT0140
vt.uscongress.southwest.1802,Pittsfield,Rutland,Vermont,NA,43.7722884,-72.8128828,ME-VT0144
vt.uscongress.southwest.1802,Pittsford,Rutland,Vermont,NA,43.7067329,-73.0281647,ME-VT0145
vt.uscongress.southwest.1802,Poultney,Rutland,Vermont,NA,43.5170325,-73.2362261,ME-VT0149
vt.uscongress.southwest.1802,Rutland,Rutland,Vermont,7053,43.6096702,-72.9777884,ME-VT0162
vt.uscongress.southwest.1802,Sherburne,Rutland,Vermont,NA,43.6775677,-72.7798247,ME-VT0100
vt.uscongress.southwest.1802,Shrewsbury,Rutland,Vermont,NA,43.5089588,-72.8667686,ME-VT0176
vt.uscongress.southwest.1802,Sudbury,Rutland,Vermont,NA,43.7992291,-73.2045583,ME-VT0190
vt.uscongress.southwest.1802,Tenmouth,Rutland,Vermont,NA,43.448682,-73.0495501,ME-VT0195
vt.uscongress.southwest.1802,Wallingford,Rutland,Vermont,NA,43.4717467,-72.9773692,ME-VT0207
vt.uscongress.southwest.1802,Wells,Rutland,Vermont,NA,43.4172937,-73.2042744,ME-VT0215
vt.council.1802,Peacham,Caledonia,Vermont,NA,44.3286166,-72.1704048,ME-VT0141
vt.council.1802,Burlington,Chittenden,Vermont,7045,44.4919905,-73.2393625,ME-VT0033
vt.uscongress.northeast.1802,Burke,Caledonia,Vermont,NA,44.618233,-71.9368346,ME-VT0032
vt.uscongress.northeast.1802,Cabot,Caledonia,Vermont,NA,44.4014456,-72.3123248,ME-VT0034
vt.uscongress.northeast.1802,Danville,Caledonia,Vermont,NA,44.4114954,-72.14009,ME-VT0053
vt.uscongress.northeast.1802,Hardwick,Caledonia,Vermont,NA,44.5416243,-72.3486803,ME-VT0085
vt.uscongress.northeast.1802,Lyndon,Caledonia,Vermont,NA,44.5453088,-72.0000723,ME-VT0110
vt.uscongress.northeast.1802,Marshfield,Caledonia,Vermont,NA,44.3508405,-72.3539905,ME-VT0115
vt.uscongress.northeast.1802,Montpelier,Caledonia,Vermont,7049,44.2664485,-72.5715237,ME-VT0123
vt.uscongress.northeast.1802,Peacham,Caledonia,Vermont,NA,44.3286166,-72.1704048,ME-VT0141
vt.uscongress.northeast.1802,Ryegate,Caledonia,Vermont,NA,44.2387639,-72.1160864,ME-VT0163
vt.uscongress.northeast.1802,Saint Johnsbury,Caledonia,Vermont,NA,44.4192627,-72.0151183,ME-VT0166
vt.uscongress.northeast.1802,Sheffield,Caledonia,Vermont,NA,44.6019975,-72.1139881,ME-VT0172
vt.uscongress.northeast.1802,Walden,Caledonia,Vermont,NA,44.4497781,-72.2231563,ME-VT0206
vt.uscongress.northeast.1802,Waterford,Caledonia,Vermont,NA,44.3729726,-71.9508384,ME-VT0213
vt.uscongress.northeast.1802,Granby,Essex,Vermont,NA,44.5706106,-71.758702,ME-VT0076
vt.uscongress.northeast.1802,Guildhall,Essex,Vermont,NA,44.56919224,-71.5836525,ME-VT0081
vt.uscongress.northeast.1802,Bradford,Orange,Vermont,NA,43.9925666,-72.1289793,ME-VT0021
vt.uscongress.northeast.1802,Chelsea,Orange,Vermont,NA,43.989788,-72.4475994,ME-VT0042
vt.uscongress.northeast.1802,Newbury,Orange,Vermont,NA,44.08561219,-72.07580566,ME-VT0131
vt.uscongress.northeast.1802,Northfield,Orange,Vermont,7051,44.15117264,-72.65649414,ME-VT0135
vt.uscongress.northeast.1802,Randolph,Orange,Vermont,NA,43.9247446,-72.6656948,ME-VT0152
vt.uscongress.northeast.1802,Roxbury,Orange,Vermont,NA,44.0939388,-72.7329823,ME-VT0159
vt.uscongress.northeast.1802,Turnbridge,Orange,Vermont,NA,43.9198761,-72.4782827,ME-VT0199
vt.uscongress.northeast.1802,Washington,Orange,Vermont,NA,44.105619,-72.432601,ME-VT0211
vt.uscongress.northeast.1802,Barton,Orleans,Vermont,NA,44.7480805,-72.176258,ME-VT0012
vt.uscongress.northeast.1802,Browington,Orleans,Vermont,NA,44.8266615,-72.1348097,ME-VT0030
vt.uscongress.northeast.1802,Craftsbury,Orleans,Vermont,NA,44.6367179,-72.3726071,ME-VT0051
vt.uscongress.northeast.1802,Derby,Orleans,Vermont,NA,44.9639953,-72.1345069,ME-VT0054
vt.uscongress.northeast.1802,Elmore,Orleans,Vermont,NA,44.5274632,-72.5187486,ME-VT0061
vt.uscongress.northeast.1802,Glover,Orleans,Vermont,NA,44.7069038,-72.1869766,ME-VT0073
vt.uscongress.northeast.1802,Greensborough,Orleans,Vermont,NA,44.6107836,-72.3046033,ME-VT0079
vt.uscongress.northeast.1802,Hydepark,Orleans,Vermont,NA,44.5939318,-72.6165192,ME-VT0093
vt.governor.1802,Addison,Addison,Vermont,NA,44.0886671,-73.302622,ME-VT0001
vt.governor.1802,Bridport,Addison,Vermont,NA,43.9873736,-73.351164,ME-VT0026
vt.governor.1802,Bristol,Addison,Vermont,NA,44.1333912,-73.0790076,ME-VT0027
vt.governor.1802,Ferrisburgh,Addison,Vermont,NA,44.2056098,-73.2462341,ME-VT0069
vt.governor.1802,Hancock,Addison,Vermont,NA,43.9261192,-72.8412292,ME-VT0084
vt.governor.1802,Middlebury,Addison,Vermont,7048,44.014153,-73.163784,ME-VT0117
vt.governor.1802,Newhaven,Addison,Vermont,NA,44.1243277,-73.1535713,ME-VT0129
vt.governor.1802,Panton,Addison,Vermont,NA,44.1487891,-73.3409878,ME-VT0139
vt.governor.1802,Salisbury,Addison,Vermont,NA,43.8964511,-73.0998363,ME-VT0168
vt.governor.1802,Shoreham,Addison,Vermont,NA,43.8936708,-73.3159515,ME-VT0175
vt.governor.1802,Vergennes,Addison,Vermont,7059,44.1676604,-73.2553163,ME-VT0201
vt.governor.1802,Warren,Addison,Vermont,NA,44.112005,-72.8559474,ME-VT0210
vt.governor.1802,Bennington,Bennington,Vermont,7043,42.878414,-73.190562,ME-VT0014
vt.governor.1802,Brumley,Bennington,Vermont,NA,43.2297974,-72.8978781,ME-VT0142
vt.governor.1802,Pownal,Bennington,Vermont,NA,42.76465819,-73.24001312,ME-VT0150
vt.governor.1802,Readsboro,Bennington,Vermont,NA,42.7718758,-72.9470426,ME-VT0154
vt.governor.1802,Shaftsbury,Bennington,Vermont,NA,42.95315594,-73.20808411,ME-VT0170
vt.governor.1802,Burke,Caledonia,Vermont,NA,44.618233,-71.9368346,ME-VT0032
vt.governor.1802,Cabot,Caledonia,Vermont,NA,44.4014456,-72.3123248,ME-VT0034
vt.governor.1802,Calais,Caledonia,Vermont,NA,44.363296,-72.4663426,ME-VT0035
vt.governor.1802,Danville,Caledonia,Vermont,NA,44.4114954,-72.14009,ME-VT0053
vt.governor.1802,Hardwick,Caledonia,Vermont,NA,44.5416243,-72.3486803,ME-VT0085
vt.governor.1802,Marshfield,Caledonia,Vermont,NA,44.3508405,-72.3539905,ME-VT0115
vt.governor.1802,Montpelier,Caledonia,Vermont,7049,44.2664485,-72.5715237,ME-VT0123
vt.governor.1802,Plainfield,Caledonia,Vermont,NA,44.2781151,-72.4264926,ME-VT0146
vt.governor.1802,Peacham,Caledonia,Vermont,NA,44.3286166,-72.1704048,ME-VT0141
vt.governor.1802,Saint Johnsbury,Caledonia,Vermont,NA,44.4192627,-72.0151183,ME-VT0166
vt.governor.1802,Sheffield,Caledonia,Vermont,NA,44.6019975,-72.1139881,ME-VT0172
vt.governor.1802,Walden,Caledonia,Vermont,NA,44.4497781,-72.2231563,ME-VT0206
vt.governor.1802,Wheelock,Caledonia,Vermont,NA,44.5882056,-72.088507,ME-VT0224
vt.governor.1802,Burlington,Chittenden,Vermont,7045,44.4919905,-73.2393625,ME-VT0033
vt.governor.1802,Charlotte,Chittenden,Vermont,NA,44.3098476,-73.2609928,ME-VT0041
vt.governor.1802,Colchester,Chittenden,Vermont,8517,44.5364,-73.20892,ME-VT0046
vt.governor.1802,Essex,Chittenden,Vermont,8518,44.511,-73.0582,ME-VT0063
vt.governor.1802,Jericho,Chittenden,Vermont,NA,44.5039395,-72.9976266,ME-VT0098
vt.governor.1802,Milton,Chittenden,Vermont,NA,44.6397701,-73.1104112,ME-VT0120
vt.governor.1802,Shelbourne,Chittenden,Vermont,NA,44.3806065,-73.227626,ME-VT0173
vt.governor.1802,Underhill,Chittenden,Vermont,NA,44.5258842,-72.9451267,ME-VT0200
vt.governor.1802,Brunswick,Essex,Vermont,NA,44.7281752,-71.6749551,ME-VT0031
vt.governor.1802,Guildhall,Essex,Vermont,NA,44.56919224,-71.5836525,ME-VT0081
vt.governor.1802,Minehead,Essex,Vermont,NA,44.7538175,-71.6324096,ME-VT0019
vt.governor.1802,Enosburgh,Franklin,Vermont,NA,44.8689592,-72.7310458,ME-VT0062
vt.governor.1802,Highgate,Franklin,Vermont,NA,44.9565227,-73.0511203,ME-VT0088
vt.governor.1802,Montgomery,Franklin,Vermont,NA,44.9025466,-72.63818,ME-VT0122
vt.governor.1802,Vineyard,Grand Isle,Vermont,NA,44.8769853,-73.3387437,ME-VT0096
vt.governor.1802,Bradford,Orange,Vermont,NA,43.9925666,-72.1289793,ME-VT0021
vt.governor.1802,Chelsea,Orange,Vermont,NA,43.989788,-72.4475994,ME-VT0042
vt.governor.1802,Newbury,Orange,Vermont,NA,44.08561219,-72.07580566,ME-VT0131
vt.governor.1802,Randolph,Orange,Vermont,NA,43.9247446,-72.6656948,ME-VT0152
vt.governor.1802,Roxbury,Orange,Vermont,NA,44.0939388,-72.7329823,ME-VT0159
vt.governor.1802,Turnbridge,Orange,Vermont,NA,43.9198761,-72.4782827,ME-VT0199
vt.governor.1802,Browington,Orleans,Vermont,NA,44.8266615,-72.1348097,ME-VT0030
vt.governor.1802,Duncansboro,Orleans,Vermont,7050,44.9417038,-72.2194775,ME-VT0133
vt.governor.1802,Elmore,Orleans,Vermont,NA,44.5274632,-72.5187486,ME-VT0061
vt.governor.1802,Glover,Orleans,Vermont,NA,44.7069038,-72.1869766,ME-VT0073
vt.governor.1802,Benson,Rutland,Vermont,NA,43.7099497,-73.3001233,ME-VT0015
vt.governor.1802,Harwich,Rutland,Vermont,NA,43.3506285,-72.9826037,ME-VT0128
vt.governor.1802,Middletown,Rutland,Vermont,NA,43.4856255,-73.1181624,ME-VT0119
vt.governor.1802,Orwell,Rutland,Vermont,NA,43.8039502,-73.2978936,ME-VT0138
vt.governor.1802,Pittsfield,Rutland,Vermont,NA,43.7722884,-72.8128828,ME-VT0144
vt.governor.1802,Pittsford,Rutland,Vermont,NA,43.7067329,-73.0281647,ME-VT0145
vt.governor.1802,Rutland,Rutland,Vermont,7053,43.6096702,-72.9777884,ME-VT0162
vt.governor.1802,Shrewsbury,Rutland,Vermont,NA,43.5089588,-72.8667686,ME-VT0176
vt.governor.1802,Brattleboro,Windham,Vermont,7044,42.856099,-72.564186,ME-VT0024
vt.governor.1802,Dummerston,Windham,Vermont,NA,42.9215017,-72.5838146,ME-VT0058
vt.governor.1802,Grafton,Windham,Vermont,NA,43.1716817,-72.6064633,ME-VT0075
vt.governor.1802,Halifax,Windham,Vermont,NA,42.7698048,-72.7453716,ME-VT0083
vt.governor.1802,Jamica,Windham,Vermont,NA,43.1003556,-72.7784296,ME-VT0097
vt.governor.1802,Marlborough,Windham,Vermont,NA,42.859526,-72.7259271,ME-VT0114
vt.governor.1802,New Fane,Windham,Vermont,NA,42.9856736,-72.6559313,ME-VT0132
vt.governor.1802,Putney,Windham,Vermont,NA,42.975268,-72.5217237,ME-VT0151
vt.governor.1802,Rockingham,Windham,Vermont,NA,43.1876028,-72.4889288,ME-VT0158
vt.governor.1802,Somerset,Windham,Vermont,NA,42.9502858,-72.9862472,ME-VT0178
vt.governor.1802,Stratton,Windham,Vermont,NA,43.0428562,-72.9109334,ME-VT0189
vt.governor.1802,Wardsboro,Windham,Vermont,NA,43.0409512,-72.7897975,ME-VT0209
vt.governor.1802,Westminster,Windham,Vermont,NA,43.0678307,-72.4587404,ME-VT0220
vt.governor.1802,Wilmington,Windham,Vermont,NA,42.8683889,-72.8714468,ME-VT0229
vt.governor.1802,Andover,Windsor,Vermont,NA,43.2773586,-72.6965278,ME-VT0004
vt.governor.1802,Barnard,Windsor,Vermont,NA,43.728679,-72.6189876,ME-VT0009
vt.governor.1802,Bethel,Windsor,Vermont,NA,43.8332779,-72.633995,ME-VT0018
vt.governor.1802,Cavendish,Windsor,Vermont,NA,43.39120261,-72.60005951,ME-VT0039
vt.governor.1802,Chester,Windsor,Vermont,NA,43.2628476,-72.5951082,ME-VT0043
vt.governor.1802,Hartland,Windsor,Vermont,NA,43.540636,-72.3989314,ME-VT0087
vt.governor.1802,Pomfret,Windsor,Vermont,NA,43.7270391,-72.4801821,ME-VT0148
vt.governor.1802,Royalton,Windsor,Vermont,NA,43.8176574,-72.5427505,ME-VT0160
vt.governor.1802,Sharon,Windsor,Vermont,NA,43.7852344,-72.4541709,ME-VT0171
vt.governor.1802,Springfield,Windsor,Vermont,7055,43.294056,-72.481704,ME-VT0180
vt.governor.1802,Stockbridge,Windsor,Vermont,NA,43.7813195,-72.7885437,ME-VT0186
vt.governor.1802,Windsor,Windsor,Vermont,7061,43.477535,-72.401154,ME-VT0231
vt.governor.1802,Woodstock,Windsor,Vermont,NA,43.6242442,-72.5185112,ME-VT0236
vt.ltgovernor.1802,Peacham,Caledonia,Vermont,NA,44.3286166,-72.1704048,ME-VT0141
vt.ltgovernor.1802,Burlington,Chittenden,Vermont,7045,44.4919905,-73.2393625,ME-VT0033
vt.ltgovernor.1802,Royalton,Windsor,Vermont,NA,43.8176574,-72.5427505,ME-VT0160
vt.ltgovernor.1802,Windsor,Windsor,Vermont,7061,43.477535,-72.401154,ME-VT0231
vt.governor.1806,Addison,Addison,Vermont,NA,44.0886671,-73.302622,ME-VT0001
vt.governor.1806,Bridport,Addison,Vermont,NA,43.9873736,-73.351164,ME-VT0026
vt.governor.1806,Bristol,Addison,Vermont,NA,44.1333912,-73.0790076,ME-VT0027
vt.governor.1806,Ferrisburgh,Addison,Vermont,NA,44.2056098,-73.2462341,ME-VT0069
vt.governor.1806,Hancock,Addison,Vermont,NA,43.9261192,-72.8412292,ME-VT0084
vt.governor.1806,Monkton,Addison,Vermont,NA,44.2200554,-73.1253991,ME-VT0121
vt.governor.1806,Newhaven,Addison,Vermont,NA,44.1243277,-73.1535713,ME-VT0129
vt.governor.1806,Panton,Addison,Vermont,NA,44.1487891,-73.3409878,ME-VT0139
vt.governor.1806,Vergennes,Addison,Vermont,7059,44.1676604,-73.2553163,ME-VT0201
vt.governor.1806,Warren,Addison,Vermont,NA,44.112005,-72.8559474,ME-VT0210
vt.governor.1806,Bennington,Bennington,Vermont,7043,42.878414,-73.190562,ME-VT0014
vt.governor.1806,Pownal,Bennington,Vermont,NA,42.76465819,-73.24001312,ME-VT0150
vt.governor.1806,Readsboro,Bennington,Vermont,NA,42.7718758,-72.9470426,ME-VT0154
vt.governor.1806,Shaftsbury,Bennington,Vermont,NA,42.95315594,-73.20808411,ME-VT0170
vt.governor.1806,Winhall,Bennington,Vermont,NA,43.1558097,-72.9133169,ME-VT0232
vt.governor.1806,Barnet,Caledonia,Vermont,NA,44.2968323,-72.0493779,ME-VT0010
vt.governor.1806,Billymead,Caledonia,Vermont,NA,44.6331085,-72.0256525,ME-VT0192
vt.governor.1806,Burke,Caledonia,Vermont,NA,44.618233,-71.9368346,ME-VT0032
vt.governor.1806,Cabot,Caledonia,Vermont,NA,44.4014456,-72.3123248,ME-VT0034
vt.governor.1806,Calais,Caledonia,Vermont,NA,44.363296,-72.4663426,ME-VT0035
vt.governor.1806,Danville,Caledonia,Vermont,NA,44.4114954,-72.14009,ME-VT0053
vt.governor.1806,Groton,Caledonia,Vermont,NA,44.2161706,-72.20180511,ME-VT0080
vt.governor.1806,Hardwick,Caledonia,Vermont,NA,44.5416243,-72.3486803,ME-VT0085
vt.governor.1806,Lyndon,Caledonia,Vermont,NA,44.5453088,-72.0000723,ME-VT0110
vt.governor.1806,Marshfield,Caledonia,Vermont,NA,44.3508405,-72.3539905,ME-VT0115
vt.governor.1806,Montpelier,Caledonia,Vermont,7049,44.2664485,-72.5715237,ME-VT0123
vt.governor.1806,Peacham,Caledonia,Vermont,NA,44.3286166,-72.1704048,ME-VT0141
vt.governor.1806,Plainfield,Caledonia,Vermont,NA,44.2781151,-72.4264926,ME-VT0146
vt.governor.1806,Ryegate,Caledonia,Vermont,NA,44.2387639,-72.1160864,ME-VT0163
vt.governor.1806,Saint Johnsbury,Caledonia,Vermont,NA,44.4192627,-72.0151183,ME-VT0166
vt.governor.1806,Sheffield,Caledonia,Vermont,NA,44.6019975,-72.1139881,ME-VT0172
vt.governor.1806,Walden,Caledonia,Vermont,NA,44.4497781,-72.2231563,ME-VT0206
vt.governor.1806,Waterford,Caledonia,Vermont,NA,44.3729726,-71.9508384,ME-VT0213
